time,pos_x,pos_y,pos_z,vel_x,vel_y,vel_z,att_phi,att_theta,att_psi,rate_p,rate_q,rate_r,distance,FPS_images,cmd_thrust,cmd_roll,cmd_pitch,cmd_yaw
672.835205,-2.738281,-1.437500,-0.089844,0.000000,0.000000,-0.008772,0.020752,0.042480,2.515625,-0.002686,0.001953,-0.000244,28.529510,51.200001,0,-156,-428,0
672.844971,-2.738281,-1.437500,-0.089844,0.000000,0.000000,-0.008860,0.020752,0.042480,2.515625,-0.002686,0.001465,0.000244,28.529510,51.200001,0,-156,-427,0
672.854736,-2.738281,-1.437500,-0.089844,0.000000,0.000000,-0.009325,0.020752,0.042480,2.515625,-0.000488,0.003174,-0.000244,28.529510,51.200001,0,-157,-429,0
672.864502,-2.738281,-1.437500,-0.089844,0.000000,0.000000,-0.008650,0.020752,0.042480,2.515625,0.002686,0.003174,-0.000244,28.529510,51.200001,0,-160,-429,0
672.874268,-2.738281,-1.437500,-0.089844,0.000000,0.000000,-0.009092,0.020752,0.042480,2.515625,0.000977,0.002686,-0.000244,28.529510,51.200001,0,-158,-429,0
672.884033,-2.738281,-1.437500,-0.089844,0.000000,0.000000,-0.009024,0.020752,0.042480,2.515625,0.005127,0.000977,0.002441,28.529510,51.200001,0,-162,-427,0
672.893799,-2.738281,-1.437500,-0.089844,0.000000,0.000000,-0.009949,0.020991,0.042594,2.515539,0.004639,0.005371,0.000244,28.529510,51.200001,0,-161,-432,0
672.903564,-2.738281,-1.437500,-0.089844,0.000000,0.000000,-0.009544,0.020752,0.042480,2.515625,0.003174,0.003662,-0.001221,28.529510,51.200001,0,-160,-431,0
672.913330,-2.738281,-1.437500,-0.089844,0.000000,0.000000,-0.010466,0.020752,0.042480,2.515625,0.005127,0.001953,0.000244,28.529510,51.200001,0,-162,-430,0
672.923096,-2.738281,-1.437500,-0.089844,0.000000,0.000000,-0.010794,0.020752,0.042480,2.515625,0.001953,0.001953,0.000732,28.529510,51.200001,0,-160,-430,0
672.932861,-2.738281,-1.437500,-0.089844,0.000000,0.000000,-0.010042,0.020752,0.042725,2.515625,0.000488,0.004639,-0.000732,28.529510,51.200001,0,-159,-433,0
672.942627,-2.738281,-1.437500,-0.089844,0.000000,0.000000,-0.010324,0.020752,0.042725,2.515625,0.000000,0.005371,-0.000244,28.529510,51.200001,0,-159,-434,0
672.952393,-2.738281,-1.437500,-0.089844,0.000000,0.000000,-0.010777,0.020752,0.042725,2.515625,-0.004395,0.003662,-0.001953,28.529510,51.200001,0,-155,-432,0
672.962158,-2.738281,-1.437500,-0.089844,0.000000,0.000000,-0.011120,0.020752,0.042725,2.515625,-0.005371,0.004639,-0.000244,28.529510,51.200001,0,-154,-433,0
672.971924,-2.738281,-1.437500,-0.089844,0.000000,0.000000,-0.010174,0.021050,0.042807,2.515498,0.003174,0.003662,-0.001221,28.529510,51.200001,0,-157,-431,0
672.981689,-2.738281,-1.437500,-0.089844,0.000000,0.000000,-0.010109,0.020996,0.042725,2.515625,-0.001709,0.000977,0.000732,28.529510,51.200001,0,-158,-430,0
672.991455,-2.738281,-1.437500,-0.089844,0.000000,0.000000,-0.011053,0.020996,0.042725,2.515625,0.003174,0.003662,-0.001953,28.529510,51.200001,0,-161,-432,0
673.001221,-2.738281,-1.437500,-0.089844,0.000000,0.000000,-0.009977,0.020996,0.042725,2.515625,0.000977,0.004150,0.001953,28.529510,51.200001,0,-159,-433,0
673.010986,-2.738281,-1.437500,-0.089844,0.000000,0.000000,-0.009890,0.020996,0.042725,2.515625,0.001953,0.001953,0.002930,28.529510,51.200001,0,-160,-431,0
673.020752,-2.738281,-1.437500,-0.089844,0.000000,0.000000,-0.010029,0.020996,0.042725,2.515625,0.006348,0.001465,0.000244,28.529510,51.200001,0,-163,-431,0
673.030518,-2.738281,-1.437500,-0.089844,0.000000,0.000000,-0.009298,0.020996,0.042725,2.515381,0.003662,-0.000488,0.000244,28.529510,51.200001,0,-161,-430,0
673.040283,-2.738281,-1.437500,-0.089844,0.000000,0.000000,-0.009441,0.020996,0.042725,2.515381,0.004150,0.001465,0.000732,28.529510,51.200001,0,-162,-431,0
673.050049,-2.738281,-1.437500,-0.089844,0.000000,0.000000,-0.009315,0.020996,0.042725,2.515381,0.002686,0.003662,-0.001953,28.529510,51.200001,0,-161,-434,0
673.059814,-2.738281,-1.437500,-0.089844,0.000000,0.000000,-0.009197,0.020996,0.042725,2.515381,0.001465,0.002686,-0.002930,28.529510,51.200001,0,-160,-433,0
673.069580,-2.738281,-1.437500,-0.089844,0.000000,0.000000,-0.010948,0.020996,0.042969,2.515381,0.000488,0.000977,-0.002441,28.529510,51.200001,0,-159,-432,0
673.079346,-2.738281,-1.437500,-0.089844,0.000000,0.000000,-0.010979,0.020996,0.042969,2.515381,-0.001709,0.003662,-0.001221,28.529510,51.200001,0,-158,-435,0
673.089111,-2.738281,-1.437500,-0.089844,0.000000,0.000000,-0.011065,0.020996,0.042969,2.515381,-0.005371,-0.002197,-0.001221,28.529510,51.200001,0,-155,-429,0
673.098877,-2.738281,-1.437500,-0.089844,0.000000,0.000000,-0.009527,0.020996,0.042969,2.515381,-0.002686,0.001953,-0.002930,28.529510,51.200001,0,-157,-433,0
673.108643,-2.738281,-1.437500,-0.089844,0.000000,0.000000,-0.009892,0.020996,0.042969,2.515381,-0.004883,0.004639,-0.003418,28.529510,51.200001,0,-155,-436,0
673.118408,-2.738281,-1.437500,-0.089844,0.000000,0.000000,-0.010122,0.020996,0.042969,2.515381,-0.000488,0.003174,-0.001221,28.529510,51.200001,0,-158,-435,0
673.128174,-2.738281,-1.437500,-0.089844,0.000000,0.000000,-0.010397,0.021089,0.043079,2.515411,-0.001709,0.000977,-0.001221,28.529510,51.200001,0,-157,-433,0
673.137939,-2.738281,-1.437500,-0.089844,0.000000,0.000000,-0.009222,0.020996,0.042969,2.515381,0.004150,0.001953,0.001221,28.529510,51.200001,0,-161,-434,0
673.147705,-2.738281,-1.437500,-0.089844,0.000000,0.000000,-0.007042,0.020996,0.042969,2.515381,0.005127,0.004150,-0.001953,28.529510,51.200001,0,-162,-436,0
673.157471,-2.738281,-1.437500,-0.089844,0.000000,0.000000,-0.006983,0.020996,0.042969,2.515381,0.006836,0.002686,0.001953,28.529510,51.200001,0,-164,-434,0
673.167236,-2.738281,-1.437500,-0.089844,0.000000,0.000000,-0.006563,0.020996,0.042969,2.515381,0.003662,0.001465,-0.002441,28.529510,51.200001,0,-161,-433,0
673.177002,-2.738281,-1.437500,-0.089844,0.000000,0.000000,-0.006927,0.020996,0.042969,2.515381,0.003662,0.003174,-0.003418,28.529510,51.200001,0,-162,-435,0
673.186768,-2.738281,-1.437500,-0.089844,0.000000,0.000000,-0.006693,0.020996,0.043213,2.515381,0.000977,0.001465,0.000732,28.529510,51.200001,0,-160,-434,0
673.196533,-2.738281,-1.437500,-0.089844,0.000000,0.000000,-0.006765,0.021109,0.043215,2.515368,-0.001221,-0.000488,-0.001953,28.529510,51.200001,0,-159,-432,0
673.206299,-2.738281,-1.437500,-0.089844,0.000000,0.000000,-0.006353,0.020996,0.043213,2.515381,0.000488,0.003662,-0.002441,28.529510,51.200001,0,-160,-437,0
673.216064,-2.738281,-1.437500,-0.089844,0.000000,0.000000,-0.006716,0.020996,0.043213,2.515381,-0.003174,0.003174,0.000244,28.529510,51.200001,0,-157,-438,0
673.225830,-2.738281,-1.437500,-0.089844,0.000000,0.000000,-0.006523,0.020996,0.043213,2.515381,-0.005371,0.001953,-0.001221,28.529510,51.200001,0,-156,-436,0
673.235596,-2.738281,-1.437500,-0.089844,0.000000,0.000000,-0.006166,0.020996,0.043213,2.515381,-0.002197,0.000977,-0.001221,28.529510,51.200001,0,-158,-434,0
673.245361,-2.738281,-1.437500,-0.089844,0.000000,0.000000,-0.006371,0.020996,0.043213,2.515381,0.000000,0.000000,-0.000732,28.529510,51.200001,0,-159,-433,0
673.255127,-2.738281,-1.437500,-0.089844,0.000000,0.000000,-0.006556,0.020996,0.043213,2.515381,0.000977,0.000488,-0.000244,28.529510,51.200001,0,-160,-433,0
673.264893,-2.738281,-1.437500,-0.089844,0.000000,0.000000,-0.006968,0.020996,0.043213,2.515381,0.006348,-0.001221,-0.001953,28.529510,51.200001,0,-163,-432,0
673.274658,-2.738281,-1.437500,-0.089844,0.000000,0.000000,-0.006788,0.020996,0.043213,2.515137,0.000977,0.001465,0.002441,28.529510,51.200001,0,-161,-435,0
673.284424,-2.738281,-1.437500,-0.089844,0.000000,0.000000,-0.007025,0.020996,0.043213,2.515137,0.004639,0.000000,0.003418,28.529510,51.200001,0,-163,-434,0
673.294189,-2.738281,-1.437500,-0.089844,0.000000,0.000000,-0.007248,0.020996,0.043213,2.515137,0.004639,0.000000,0.001221,28.529510,51.200001,0,-162,-435,0
673.303955,-2.738281,-1.437500,-0.089844,0.000000,0.000000,-0.004652,0.020996,0.043213,2.515137,0.003662,0.001953,-0.000244,28.529510,51.200001,0,-161,-437,0
673.313721,-2.738281,-1.437500,-0.089844,0.000000,0.000000,-0.004906,0.020996,0.043213,2.515137,0.003174,0.002686,-0.000244,28.529510,51.200001,0,-161,-438,0
673.323486,-2.738281,-1.437500,-0.089844,0.000000,0.000000,-0.005005,0.020996,0.043213,2.515137,0.000000,0.003174,0.000244,28.529510,51.200001,0,-159,-438,0
673.333252,-2.738281,-1.437500,-0.089844,0.000000,0.000000,-0.005228,0.020996,0.043213,2.515137,0.001465,0.000977,-0.000732,28.529510,51.200001,0,-161,-436,0
673.343018,-2.738281,-1.437500,-0.089844,0.000000,0.000000,-0.004875,0.020996,0.043457,2.515137,-0.002197,0.002686,-0.000244,28.529510,51.200001,0,-158,-439,0
673.352783,-2.738281,-1.437500,-0.089844,0.000000,0.000000,-0.004747,0.020996,0.043457,2.515137,-0.003906,0.000000,-0.003418,28.529510,51.200001,0,-157,-436,0
673.362549,-2.738281,-1.437500,-0.089844,0.000000,0.000000,-0.004677,0.020996,0.043457,2.515137,-0.001709,0.000977,-0.000244,28.529510,51.200001,0,-158,-436,0
673.372314,-2.738281,-1.437500,-0.089844,0.000000,0.000000,-0.004547,0.020996,0.043457,2.515137,-0.004883,0.003662,0.000244,28.529510,51.200001,0,-156,-438,0
673.382080,-2.738281,-1.437500,-0.089844,0.000000,0.000000,-0.004416,0.020996,0.043457,2.515137,-0.002197,0.003174,0.000244,28.529510,51.200001,0,-158,-439,0
673.391846,-2.738281,-1.437500,-0.089844,0.000000,0.000000,-0.004471,0.020996,0.043457,2.515137,0.000000,-0.000488,0.001953,28.529510,51.200001,0,-160,-435,0
673.401611,-2.738281,-1.437500,-0.089844,0.000000,0.000000,-0.004339,0.020996,0.043457,2.515137,0.004150,0.001465,-0.001953,28.529510,51.200001,0,-163,-437,0
673.411377,-2.738281,-1.437500,-0.089844,0.000000,0.000000,-0.004587,0.020996,0.043457,2.515137,0.003662,0.004150,-0.001221,28.529510,51.200001,0,-163,-439,0
673.421143,-2.738281,-1.437500,-0.089844,0.000000,0.000000,-0.004408,0.020996,0.043457,2.515137,0.004150,0.003174,0.001221,28.529510,51.200001,0,-163,-439,0
673.430908,-2.738281,-1.437500,-0.089844,0.000000,0.000000,-0.004721,0.020996,0.043457,2.515137,0.004639,0.000977,0.000732,28.529510,51.200001,0,-163,-436,0
673.440674,-2.738281,-1.437500,-0.089844,0.000000,0.000000,-0.004814,0.020996,0.043457,2.515137,0.005859,0.001953,0.001709,28.529510,51.200001,0,-164,-439,0
673.450439,-2.738281,-1.437500,-0.089844,0.000000,0.000000,-0.004999,0.020996,0.043457,2.515137,0.002686,0.003662,-0.003174,28.529510,51.200001,0,-161,-440,0
673.460205,-2.738281,-1.437500,-0.085938,0.000000,0.000000,-0.003180,0.020996,0.043457,2.515137,0.000488,0.002686,-0.002686,28.529510,51.200001,0,-160,-439,0
673.469971,-2.738281,-1.437500,-0.085938,0.000000,0.000000,-0.003498,0.020996,0.043457,2.515137,-0.001709,0.000000,0.000488,28.529510,51.200001,0,-159,-437,0
673.479736,-2.738281,-1.437500,-0.085938,0.000000,0.000000,-0.004276,0.020996,0.043457,2.515137,-0.000488,0.004150,-0.004150,28.529510,48.761906,0,-160,-441,0
673.489502,-2.738281,-1.437500,-0.085938,0.000000,0.000000,-0.004442,0.020996,0.043457,2.515137,-0.003906,0.004639,-0.001465,28.529510,48.761906,0,-158,-442,0
673.499268,-2.738281,-1.437500,-0.085938,0.000000,0.000000,-0.004957,0.020996,0.043457,2.515137,-0.003174,0.000977,-0.000977,28.529510,53.894737,0,-158,-438,0
673.509033,-2.738281,-1.437500,-0.089844,0.000000,0.000000,-0.005220,0.020996,0.043457,2.515137,-0.001221,0.004150,0.002197,28.529510,53.894737,0,-159,-441,0
673.518799,-2.738281,-1.437500,-0.089844,0.000000,0.000000,-0.005756,0.020996,0.043457,2.515137,-0.002197,0.000977,-0.000977,28.529510,51.200001,0,-158,-438,0
673.528564,-2.738281,-1.437500,-0.089844,0.000000,0.000000,-0.005606,0.020996,0.043457,2.515137,0.000977,0.001465,-0.000488,28.529510,51.200001,0,-160,-439,0
673.538330,-2.738281,-1.437500,-0.089844,0.000000,0.000000,-0.008350,0.020996,0.043701,2.515137,0.002686,0.003174,-0.001465,28.529510,51.200001,0,-162,-441,0
673.548096,-2.738281,-1.437500,-0.089844,0.000000,0.000000,-0.008575,0.020996,0.043701,2.515137,0.004150,0.000977,-0.000977,28.529510,51.200001,0,-163,-438,0
673.557861,-2.738281,-1.437500,-0.089844,0.000000,0.000000,-0.008657,0.020996,0.043701,2.515137,0.004150,0.005371,0.000000,28.529510,51.200001,0,-163,-442,0
673.567627,-2.738281,-1.437500,-0.089844,0.000000,0.000000,-0.008585,0.020996,0.043701,2.515137,0.006836,0.005371,0.000488,28.529510,51.200001,0,-165,-443,0
673.577393,-2.738281,-1.437500,-0.089844,0.000000,0.000000,-0.007843,0.020996,0.043701,2.515137,0.003662,0.003662,0.000977,28.529510,51.200001,0,-162,-442,0
673.587158,-2.738281,-1.437500,-0.089844,0.000000,0.000000,-0.007944,0.020996,0.043701,2.515137,0.002686,0.002686,-0.000488,28.529510,51.200001,0,-162,-441,0
673.596924,-2.738281,-1.437500,-0.089844,0.000000,0.000000,-0.008291,0.020996,0.043701,2.515137,-0.000488,0.003174,-0.000488,28.529510,51.200001,0,-160,-442,0
673.606689,-2.738281,-1.437500,-0.089844,0.000000,0.000000,-0.007856,0.020996,0.043701,2.515137,0.000488,0.001953,0.001709,28.529510,51.200001,0,-162,-441,0
673.616455,-2.738281,-1.437500,-0.089844,0.000000,0.000000,-0.008734,0.020996,0.043701,2.515137,-0.003174,0.000977,0.000977,28.529510,51.200001,0,-159,-439,0
673.626221,-2.738281,-1.437500,-0.089844,0.000000,0.000000,-0.008917,0.020996,0.043701,2.515137,-0.003174,0.000977,-0.002197,28.529510,51.200001,0,-158,-439,0
673.635986,-2.738281,-1.437500,-0.089844,0.000000,0.000000,-0.008488,0.020996,0.043701,2.515137,-0.001221,0.001953,-0.000977,28.529510,51.200001,0,-159,-440,0
673.645752,-2.738281,-1.437500,-0.089844,0.000000,0.000000,-0.008369,0.020996,0.043701,2.514893,-0.003174,0.003662,-0.000977,28.529510,51.200001,0,-158,-443,0
673.655518,-2.738281,-1.437500,-0.089844,0.000000,0.000000,-0.008755,0.020996,0.043701,2.514893,0.000000,0.004150,0.000977,28.529510,51.200001,0,-159,-444,0
673.665283,-2.738281,-1.437500,-0.089844,0.000000,0.000000,-0.009048,0.020996,0.043701,2.514893,0.001465,0.003174,-0.000977,28.529510,51.200001,0,-161,-443,0
673.675049,-2.738281,-1.437500,-0.089844,0.000000,0.000000,-0.008633,0.021262,0.043912,2.515048,0.005127,0.006348,-0.003174,28.529510,51.200001,0,-164,-447,0
673.684814,-2.738281,-1.437500,-0.089844,0.000000,0.000000,-0.008385,0.020996,0.043701,2.514893,0.005859,0.004150,0.000000,28.529510,51.200001,0,-164,-444,0
673.694580,-2.738281,-1.437500,-0.089844,0.000000,0.000000,-0.007490,0.020996,0.043701,2.514893,0.005127,-0.000488,0.001709,28.529510,51.200001,0,-164,-440,0
673.704346,-2.738281,-1.437500,-0.089844,0.000000,0.000000,-0.007320,0.020996,0.043701,2.514893,0.003174,0.001465,-0.000488,28.529510,51.200001,0,-162,-441,0
673.714111,-2.738281,-1.437500,-0.089844,0.000000,0.000000,-0.007599,0.020996,0.043945,2.514893,0.002686,0.002686,0.002197,28.529510,51.200001,0,-162,-442,0
673.723877,-2.738281,-1.437500,-0.089844,0.000000,0.000000,-0.007761,0.020996,0.043945,2.514893,-0.001221,0.004150,-0.000977,28.529510,51.200001,0,-159,-444,0
673.733643,-2.738281,-1.437500,-0.089844,0.000000,0.000000,-0.007944,0.020996,0.043945,2.514893,0.000488,0.000000,-0.000488,28.529510,51.200001,0,-161,-440,0
673.743408,-2.738281,-1.437500,-0.089844,0.000000,0.000000,-0.007795,0.020996,0.043945,2.514893,-0.003174,0.000977,-0.004150,28.529510,51.200001,0,-159,-441,0
673.753174,-2.738281,-1.437500,-0.089844,0.000000,0.000000,-0.007977,0.020996,0.043945,2.514893,-0.002686,-0.001221,-0.002686,28.529510,51.200001,0,-159,-439,0
673.762939,-2.738281,-1.437500,-0.089844,0.000000,0.000000,-0.008488,0.020996,0.043945,2.514893,-0.001221,0.001953,-0.002197,28.529510,51.200001,0,-160,-443,0
673.772705,-2.738281,-1.437500,-0.089844,0.000000,0.000000,-0.006264,0.020996,0.043945,2.514893,-0.003174,0.001953,-0.000488,28.529510,51.200001,0,-158,-443,0
673.782471,-2.738281,-1.437500,-0.089844,0.000000,0.000000,-0.006870,0.021240,0.043945,2.514893,-0.002686,0.002686,-0.002197,28.529510,51.200001,0,-159,-444,0
673.792297,-2.738281,-1.437500,-0.089844,0.000000,0.000000,-0.007317,0.021240,0.043945,2.514893,0.000488,0.000977,-0.000488,28.529510,51.200001,0,-161,-443,0
673.802002,-2.738281,-1.437500,-0.089844,0.000000,0.000000,-0.007555,0.021240,0.043945,2.514893,0.001465,0.003174,0.000000,28.529510,51.200001,0,-162,-445,0
673.811768,-2.738281,-1.437500,-0.089844,0.000000,0.000000,-0.007521,0.021240,0.043945,2.514893,0.005127,0.002686,0.003174,28.529510,51.200001,0,-164,-445,0
673.821533,-2.738281,-1.437500,-0.089844,0.000000,0.000000,-0.007547,0.021240,0.043945,2.514893,0.005859,0.000977,0.003174,28.529510,51.200001,0,-165,-443,0
673.831299,-2.738281,-1.437500,-0.089844,0.000000,0.000000,-0.007710,0.021240,0.043945,2.514893,0.004639,0.003662,0.000000,28.529510,51.200001,0,-164,-445,0
673.841064,-2.738281,-1.437500,-0.089844,0.000000,0.000000,-0.007666,0.021240,0.043945,2.514893,0.004150,0.005859,0.000977,28.529510,51.200001,0,-163,-448,0
673.850830,-2.738281,-1.437500,-0.089844,0.000000,0.000000,-0.009487,0.021240,0.043945,2.514893,0.003662,0.004150,-0.001465,28.529510,51.200001,0,-163,-446,0
673.860596,-2.738281,-1.437500,-0.089844,0.000000,0.000000,-0.009529,0.021240,0.044189,2.514893,0.001953,0.004150,0.000488,28.529510,51.200001,0,-162,-447,0
673.870361,-2.738281,-1.437500,-0.089844,0.000000,0.000000,-0.008930,0.021240,0.044189,2.514648,-0.002197,0.000000,-0.000488,28.529510,51.200001,0,-159,-443,0
673.880127,-2.738281,-1.437500,-0.089844,0.000000,0.000000,-0.009331,0.021240,0.044189,2.514648,-0.000488,0.001953,-0.001465,28.529510,51.200001,0,-161,-444,0
673.889893,-2.738281,-1.437500,-0.089844,0.000000,0.000000,-0.009666,0.021240,0.044189,2.514648,-0.004395,0.000977,-0.000488,28.529510,51.200001,0,-158,-443,0
673.899658,-2.738281,-1.437500,-0.089844,0.000000,0.000000,-0.009893,0.021240,0.044189,2.514648,-0.006348,0.006348,-0.000977,28.529510,51.200001,0,-156,-448,0
673.909424,-2.738281,-1.437500,-0.089844,0.000000,0.000000,-0.009377,0.021240,0.044189,2.514648,-0.001221,0.000488,0.000488,28.529510,51.200001,0,-159,-444,0
673.919189,-2.738281,-1.437500,-0.089844,0.000000,0.000000,-0.009874,0.021240,0.044189,2.514648,-0.002686,0.001465,-0.000488,28.529510,51.200001,0,-158,-444,0
673.928955,-2.738281,-1.437500,-0.089844,0.000000,0.000000,-0.010963,0.021355,0.044203,2.514763,-0.000488,0.004639,0.000000,28.529510,51.200001,0,-160,-447,0
673.938721,-2.738281,-1.437500,-0.089844,0.000000,0.000000,-0.010050,0.021240,0.044189,2.514648,0.003174,0.001953,0.002197,28.529510,51.200001,0,-163,-446,0
673.948486,-2.738281,-1.437500,-0.089844,0.000000,0.000000,-0.010267,0.021240,0.044189,2.514648,0.003662,0.002686,-0.000977,28.529510,51.200001,0,-163,-447,0
673.958252,-2.738281,-1.437500,-0.089844,0.000000,0.000000,-0.010628,0.021240,0.044189,2.514648,0.005859,0.000000,-0.000977,28.529510,51.200001,0,-165,-444,0
673.968018,-2.738281,-1.437500,-0.089844,0.000000,0.000000,-0.010910,0.021240,0.044189,2.514648,0.006836,0.002686,0.003662,28.529510,51.200001,0,-167,-446,0
673.977783,-2.738281,-1.437500,-0.089844,0.000000,0.000000,-0.010794,0.021240,0.044189,2.514648,0.005859,0.001465,0.000000,28.529510,51.200001,0,-166,-445,0
673.987549,-2.738281,-1.437500,-0.089844,0.000000,0.000000,-0.010664,0.021240,0.044189,2.514648,0.003662,0.001465,0.000000,28.529510,51.200001,0,-165,-446,0
673.997314,-2.738281,-1.437500,-0.089844,0.000000,0.000000,-0.010916,0.021240,0.044189,2.514648,-0.000488,0.002686,-0.004150,28.529510,51.200001,0,-161,-447,0
674.007080,-2.738281,-1.437500,-0.089844,0.000000,0.000000,-0.009809,0.021240,0.044189,2.514648,0.000488,-0.000488,0.000000,28.529510,51.200001,0,-162,-444,0
674.016846,-2.738281,-1.437500,-0.089844,0.000000,0.000000,-0.009987,0.021240,0.044434,2.514648,-0.001221,0.000488,-0.000977,28.529510,51.200001,0,-160,-446,0
674.026611,-2.738281,-1.437500,-0.089844,0.000000,0.000000,-0.010242,0.021240,0.044434,2.514648,-0.004395,0.002686,-0.002686,28.529510,51.200001,0,-158,-448,0
674.036377,-2.738281,-1.437500,-0.089844,0.000000,0.000000,-0.010136,0.021240,0.044434,2.514648,-0.001221,-0.000488,0.000000,28.529510,51.200001,0,-160,-445,0
674.046143,-2.738281,-1.437500,-0.089844,0.000000,0.000000,-0.009163,0.021240,0.044434,2.514648,-0.004395,0.003174,-0.002686,28.529510,51.200001,0,-158,-448,0
674.055908,-2.738281,-1.437500,-0.089844,0.000000,0.000000,-0.009443,0.021240,0.044434,2.514648,-0.002197,0.001465,0.000000,28.529510,51.200001,0,-160,-447,0
674.065674,-2.738281,-1.437500,-0.089844,0.000000,0.000000,-0.009472,0.021240,0.044434,2.514648,0.001465,0.000488,-0.000977,28.529510,51.200001,0,-162,-445,0
674.075439,-2.738281,-1.437500,-0.089844,0.000000,0.000000,-0.009657,0.021240,0.044434,2.514648,0.001953,0.000488,-0.001465,28.529510,51.200001,0,-163,-445,0
674.085205,-2.738281,-1.437500,-0.089844,0.000000,0.000000,-0.010351,0.021240,0.044434,2.514648,0.001953,0.005859,-0.000488,28.529510,51.200001,0,-163,-451,0
674.094971,-2.738281,-1.437500,-0.089844,0.000000,0.000000,-0.010902,0.021240,0.044434,2.514648,0.004639,0.000977,0.000488,28.529510,51.200001,0,-165,-447,0
674.104736,-2.738281,-1.437500,-0.089844,0.000000,0.000000,-0.011108,0.021451,0.044493,2.514626,0.006348,0.005371,0.003174,28.529510,51.200001,0,-166,-452,0
674.114502,-2.738281,-1.437500,-0.089844,0.000000,0.000000,-0.010042,0.021240,0.044434,2.514648,0.005859,0.000488,0.000488,28.529510,51.200001,0,-166,-448,0
674.124268,-2.738281,-1.437500,-0.089844,0.000000,0.000000,-0.010214,0.021240,0.044434,2.514648,0.000488,0.003662,0.000000,28.529510,51.200001,0,-162,-450,0
674.135010,-2.738281,-1.437500,-0.089844,0.000000,0.000000,-0.010267,0.021240,0.044434,2.514648,0.000000,0.004639,0.000000,28.529510,51.200001,0,-162,-451,0
674.143799,-2.738281,-1.437500,-0.089844,0.000000,0.000000,-0.009447,0.021240,0.044434,2.514648,0.000488,0.003174,-0.004150,28.529510,51.200001,0,-162,-449,0
674.153564,-2.738281,-1.437500,-0.089844,0.000000,0.000000,-0.009836,0.021240,0.044434,2.514648,-0.002197,0.003174,-0.003174,28.529510,51.200001,0,-160,-450,0
674.163330,-2.738281,-1.437500,-0.089844,0.000000,0.000000,-0.010750,0.021240,0.044434,2.514648,-0.003906,0.004150,0.000488,28.529510,51.200001,0,-159,-451,0
674.173096,-2.738281,-1.437500,-0.089844,0.000000,0.000000,-0.010092,0.021240,0.044434,2.514648,-0.004395,0.000000,0.000000,28.529510,51.200001,0,-159,-447,0
674.182861,-2.738281,-1.437500,-0.089844,0.000000,0.000000,-0.010359,0.021240,0.044434,2.514648,-0.000488,0.001953,-0.000488,28.529510,51.200001,0,-161,-448,0
674.192627,-2.738281,-1.437500,-0.089844,0.000000,0.000000,-0.010712,0.021240,0.044434,2.514648,-0.003906,0.003174,0.003662,28.529510,51.200001,0,-159,-450,0
674.202393,-2.738281,-1.437500,-0.089844,0.000000,0.000000,-0.010775,0.021240,0.044678,2.514648,0.000488,0.003662,0.000000,28.529510,51.200001,0,-162,-451,0
674.212158,-2.738281,-1.437500,-0.089844,0.000000,0.000000,-0.009996,0.021240,0.044678,2.514648,0.001953,0.003174,-0.000977,28.529510,51.200001,0,-163,-451,0
674.221924,-2.738281,-1.437500,-0.089844,0.000000,0.000000,-0.010025,0.021240,0.044678,2.514648,0.004150,-0.001221,0.002197,28.529510,51.200001,0,-165,-447,0
674.231689,-2.738281,-1.437500,-0.089844,0.000000,0.000000,-0.009727,0.021240,0.044678,2.514648,0.006348,0.002686,0.001709,28.529510,51.200001,0,-166,-450,0
674.241455,-2.738281,-1.437500,-0.089844,0.000000,0.000000,-0.009876,0.021240,0.044678,2.514648,0.006348,0.002686,0.001709,28.529510,51.200001,0,-166,-451,0
674.251221,-2.738281,-1.437500,-0.089844,0.000000,0.000000,-0.010441,0.021240,0.044678,2.514648,0.007324,-0.000488,0.000488,28.529510,51.200001,0,-168,-447,0
674.260986,-2.738281,-1.437500,-0.089844,0.000000,0.000000,-0.010784,0.021484,0.044678,2.514648,0.002686,0.003174,-0.000488,28.529510,51.200001,0,-164,-451,0
674.270752,-2.738281,-1.437500,-0.089844,0.000000,0.000000,-0.011196,0.021484,0.044678,2.514648,0.004150,0.002686,0.000977,28.529510,51.200001,0,-165,-451,0
674.280518,-2.738281,-1.437500,-0.089844,0.000000,0.000000,-0.010530,0.021484,0.044678,2.514648,0.000000,0.002686,0.000000,28.529510,51.200001,0,-162,-450,0
674.290283,-2.738281,-1.437500,-0.089844,0.000000,0.000000,-0.010727,0.021484,0.044678,2.514404,-0.003174,-0.000488,0.000488,28.529510,51.200001,0,-160,-448,0
674.300049,-2.738281,-1.437500,-0.089844,0.000000,0.000000,-0.010618,0.021484,0.044678,2.514404,-0.001709,0.000488,-0.000977,28.529510,51.200001,0,-161,-449,0
674.309814,-2.738281,-1.437500,-0.089844,0.000000,0.000000,-0.009348,0.021484,0.044678,2.514404,-0.003906,0.002686,-0.002197,28.529510,51.200001,0,-159,-451,0
674.319580,-2.738281,-1.437500,-0.089844,0.000000,0.000000,-0.007080,0.021484,0.044678,2.514404,-0.002686,0.001953,-0.002686,28.529510,51.200001,0,-160,-451,0
674.329346,-2.738281,-1.437500,-0.089844,0.000000,0.000000,-0.007147,0.021484,0.044678,2.514404,-0.001709,0.000977,0.000488,28.529510,51.200001,0,-161,-450,0
674.339111,-2.738281,-1.437500,-0.089844,0.000000,0.000000,-0.007360,0.021484,0.044678,2.514404,-0.001221,0.003662,0.000488,28.529510,51.200001,0,-161,-452,0
674.348877,-2.738281,-1.437500,-0.089844,0.000000,0.000000,-0.006973,0.021484,0.044678,2.514404,0.003174,0.001953,-0.000977,28.529510,51.200001,0,-164,-451,0
674.358643,-2.738281,-1.437500,-0.089844,0.000000,0.000000,-0.007011,0.021484,0.044678,2.514404,0.001953,0.000977,0.000488,28.529510,51.200001,0,-164,-451,0
674.368408,-2.738281,-1.437500,-0.089844,0.000000,0.000000,-0.007521,0.021484,0.044678,2.514404,0.004639,0.003174,0.000488,28.529510,51.200001,0,-166,-453,0
674.378174,-2.738281,-1.437500,-0.089844,0.000000,0.000000,-0.007807,0.021484,0.044678,2.514404,0.005127,0.003662,0.000977,28.529510,51.200001,0,-166,-454,0
674.387939,-2.738281,-1.437500,-0.089844,0.000000,0.000000,-0.008217,0.021484,0.044678,2.514404,0.007324,0.003662,0.000000,28.529510,51.200001,0,-167,-454,0
674.397705,-2.738281,-1.437500,-0.089844,0.000000,0.000000,-0.006762,0.021484,0.044678,2.514404,0.004639,0.004150,-0.002197,28.529510,51.200001,0,-165,-455,0
674.407471,-2.738281,-1.437500,-0.089844,0.000000,0.000000,-0.007093,0.021484,0.044678,2.514404,0.003662,0.001953,0.000488,28.529510,51.200001,0,-165,-452,0
674.417236,-2.738281,-1.437500,-0.089844,0.000000,0.000000,-0.007496,0.021484,0.044922,2.514404,-0.000488,0.005371,-0.002197,28.529510,51.200001,0,-162,-455,0
674.427002,-2.738281,-1.437500,-0.089844,0.000000,0.000000,-0.007723,0.021484,0.044922,2.514404,-0.000488,0.001953,0.001709,28.529510,51.200001,0,-162,-452,0
674.436768,-2.738281,-1.437500,-0.089844,0.000000,0.000000,-0.008366,0.021606,0.044996,2.514448,-0.002197,0.000000,-0.001465,28.529510,51.200001,0,-162,-451,0
674.446533,-2.738281,-1.437500,-0.089844,0.000000,0.000000,-0.008877,0.021484,0.044922,2.514404,-0.003906,0.002686,-0.000977,28.529510,51.200001,0,-160,-453,0
674.456299,-2.738281,-1.437500,-0.089844,0.000000,0.000000,-0.009226,0.021484,0.044922,2.514404,-0.003174,0.002686,-0.001465,28.529510,51.200001,0,-160,-454,0
674.466064,-2.738281,-1.437500,-0.089844,0.000000,0.000000,-0.009192,0.021484,0.044922,2.514404,-0.003906,0.000000,0.000977,28.529510,51.200001,0,-160,-452,0
674.475830,-2.738281,-1.437500,-0.085938,0.000000,0.000000,-0.007120,0.021484,0.044922,2.514404,0.001465,0.001465,0.000000,28.529510,51.200001,0,-163,-453,0
674.485596,-2.738281,-1.437500,-0.085938,0.000000,0.000000,-0.007690,0.021484,0.044922,2.514404,-0.003174,0.001953,-0.002197,28.529510,51.200001,0,-160,-452,0
674.495361,-2.738281,-1.437500,-0.089844,0.000000,0.000000,-0.008127,0.021484,0.044922,2.514404,0.003662,0.003662,0.000000,28.529510,51.200001,0,-164,-453,0
674.505127,-2.738281,-1.437500,-0.089844,0.000000,0.000000,-0.008148,0.021484,0.044922,2.514404,0.005127,0.005371,0.000488,28.529510,51.200001,0,-166,-456,0
674.514893,-2.738281,-1.437500,-0.089844,0.000000,0.000000,-0.008415,0.021484,0.044922,2.514404,0.004639,0.003662,-0.003174,28.529510,51.200001,0,-166,-454,0
674.524658,-2.738281,-1.437500,-0.089844,0.000000,0.000000,-0.009108,0.021484,0.044922,2.514404,0.002686,0.003174,0.000977,28.529510,51.200001,0,-165,-454,0
674.534424,-2.738281,-1.437500,-0.089844,0.000000,0.000000,-0.008905,0.021484,0.044922,2.514404,0.002686,0.002686,0.001709,28.529510,51.200001,0,-165,-456,0
674.544189,-2.738281,-1.437500,-0.089844,0.000000,0.000000,-0.009169,0.021484,0.044922,2.514404,0.003174,0.001465,-0.002197,28.529510,51.200001,0,-164,-455,0
674.553955,-2.738281,-1.437500,-0.089844,0.000000,0.000000,-0.009033,0.021484,0.044922,2.514404,0.001953,0.003174,-0.002197,28.529510,51.200001,0,-164,-455,0
674.563721,-2.738281,-1.437500,-0.089844,0.000000,0.000000,-0.009277,0.021484,0.045166,2.514404,0.000000,0.003662,0.000488,28.529510,51.200001,0,-164,-457,0
674.573486,-2.738281,-1.437500,-0.089844,0.000000,0.000000,-0.009235,0.021484,0.045166,2.514404,0.000000,0.001953,-0.000977,28.529510,51.200001,0,-163,-455,0
674.583252,-2.738281,-1.437500,-0.089844,0.000000,0.000000,-0.009041,0.021484,0.045166,2.514404,-0.002686,0.000488,-0.002686,28.529510,51.200001,0,-161,-453,0
674.593018,-2.738281,-1.437500,-0.089844,0.000000,0.000000,-0.009008,0.021484,0.045166,2.514404,-0.002686,0.002686,-0.003174,28.529510,51.200001,0,-161,-455,0
674.602783,-2.738281,-1.437500,-0.089844,0.000000,0.000000,-0.009169,0.021484,0.045166,2.514404,-0.000488,0.006348,0.000000,28.529510,51.200001,0,-162,-460,0
674.612549,-2.738281,-1.437500,-0.089844,0.000000,0.000000,-0.008955,0.021484,0.045166,2.514404,0.000000,0.002686,-0.000488,28.529510,51.200001,0,-163,-457,0
674.622314,-2.738281,-1.437500,-0.089844,0.000000,0.000000,-0.008951,0.021484,0.045166,2.514404,0.000488,0.005859,0.000488,28.529510,51.200001,0,-163,-459,0
674.632080,-2.738281,-1.437500,-0.089844,0.000000,0.000000,-0.010881,0.021484,0.045166,2.514404,0.000000,0.000488,-0.000977,28.529510,51.200001,0,-162,-454,0
674.641846,-2.738281,-1.437500,-0.089844,0.000000,0.000000,-0.011290,0.021484,0.045166,2.514160,0.001953,-0.002197,-0.001465,28.529510,51.200001,0,-164,-450,0
674.651611,-2.738281,-1.437500,-0.089844,0.000000,0.000000,-0.010681,0.021484,0.045166,2.514160,0.003662,0.001465,0.001709,28.529510,51.200001,0,-165,-454,0
674.661377,-2.738281,-1.437500,-0.089844,0.000000,0.000000,-0.010796,0.021484,0.045166,2.514160,0.005127,0.001465,-0.000977,28.529510,51.200001,0,-167,-455,0
674.671143,-2.738281,-1.437500,-0.089844,0.000000,0.000000,-0.010563,0.021484,0.045166,2.514160,0.004150,0.000000,-0.000977,28.529510,51.200001,0,-166,-455,0
674.680908,-2.738281,-1.437500,-0.089844,0.000000,0.000000,-0.009687,0.021484,0.045166,2.514160,0.005127,-0.000488,-0.000488,28.529510,51.200001,0,-166,-455,0
674.690674,-2.738281,-1.437500,-0.089844,0.000000,0.000000,-0.010065,0.021484,0.045166,2.514160,0.005859,0.001953,0.000977,28.529510,51.200001,0,-166,-457,0
674.700439,-2.738281,-1.437500,-0.089844,0.000000,0.000000,-0.010126,0.021484,0.045166,2.514160,-0.001709,0.002686,-0.002197,28.529510,51.200001,0,-162,-457,0
674.710205,-2.738281,-1.437500,-0.089844,0.000000,0.000000,-0.008877,0.021484,0.045166,2.514160,-0.001221,0.002686,-0.000977,28.529510,51.200001,0,-161,-457,0
674.719971,-2.738281,-1.437500,-0.089844,0.000000,0.000000,-0.008612,0.021484,0.045166,2.514160,-0.001221,0.003174,-0.000977,28.529510,51.200001,0,-162,-457,0
674.729736,-2.738281,-1.437500,-0.089844,0.000000,0.000000,-0.008984,0.021484,0.045166,2.514160,-0.004395,0.001465,-0.001465,28.529510,51.200001,0,-160,-456,0
674.739502,-2.738281,-1.437500,-0.089844,0.000000,0.000000,-0.009007,0.021484,0.045166,2.514160,-0.002686,0.005371,-0.000977,28.529510,51.200001,0,-161,-460,0
674.749268,-2.738281,-1.437500,-0.089844,0.000000,0.000000,-0.008711,0.021484,0.045410,2.514160,-0.003174,0.003662,-0.000977,28.529510,51.200001,0,-161,-460,0
674.759033,-2.738281,-1.437500,-0.089844,0.000000,0.000000,-0.009027,0.021484,0.045410,2.514160,-0.002686,0.001953,-0.000488,28.529510,51.200001,0,-161,-457,0
674.768799,-2.738281,-1.437500,-0.089844,0.000000,0.000000,-0.009274,0.021484,0.045410,2.514160,0.002686,0.003174,0.000488,28.529510,51.200001,0,-166,-459,0
674.778564,-2.738281,-1.437500,-0.089844,0.000000,0.000000,-0.009773,0.021484,0.045410,2.514160,0.002686,-0.000488,0.001709,28.529510,51.200001,0,-165,-455,0
674.788330,-2.738281,-1.437500,-0.089844,0.000000,0.000000,-0.010382,0.021484,0.045410,2.514160,0.005859,0.004150,0.002197,28.529510,51.200001,0,-168,-459,0
674.798096,-2.738281,-1.437500,-0.089844,0.000000,0.000000,-0.010992,0.021484,0.045410,2.514160,0.004150,0.001953,0.000488,28.529510,51.200001,0,-166,-457,0
674.807861,-2.738281,-1.437500,-0.089844,0.000000,0.000000,-0.010969,0.021484,0.045410,2.514160,0.003662,0.001465,0.000977,28.529510,51.200001,0,-165,-457,0
674.817627,-2.738281,-1.437500,-0.089844,0.000000,0.000000,-0.010326,0.021484,0.045410,2.514160,0.005859,0.003662,-0.001465,28.529510,51.200001,0,-166,-459,0
674.827393,-2.738281,-1.437500,-0.089844,0.000000,0.000000,-0.010338,0.021682,0.045539,2.514223,0.002686,0.001465,-0.000488,28.529510,51.200001,0,-165,-457,0
674.837158,-2.738281,-1.437500,-0.089844,0.000000,0.000000,-0.010477,0.021484,0.045410,2.514160,0.003662,0.000488,0.000977,28.529510,51.200001,0,-166,-456,0
674.846924,-2.738281,-1.437500,-0.089844,0.000000,0.000000,-0.009521,0.021484,0.045410,2.514160,0.001465,0.005371,-0.002197,28.529510,51.200001,0,-164,-462,0
674.856689,-2.738281,-1.437500,-0.089844,0.000000,0.000000,-0.009832,0.021484,0.045410,2.514160,-0.000488,0.001465,-0.003174,28.529510,51.200001,0,-163,-459,0
674.866455,-2.738281,-1.437500,-0.089844,0.000000,0.000000,-0.007761,0.021484,0.045410,2.514160,-0.002686,0.000977,-0.000977,28.529510,51.200001,0,-162,-458,0
674.876221,-2.738281,-1.437500,-0.089844,0.000000,0.000000,-0.007841,0.021719,0.045616,2.514126,-0.001709,0.000977,0.002197,28.529510,51.200001,0,-168,-457,0
674.885986,-2.738281,-1.437500,-0.089844,0.000000,0.000000,-0.007765,0.021484,0.045410,2.514160,-0.002197,-0.000488,-0.000977,28.529510,51.200001,0,-162,-456,0
674.895752,-2.738281,-1.437500,-0.089844,0.000000,0.000000,-0.008032,0.021484,0.045410,2.514160,-0.001709,0.000000,-0.002197,28.529510,51.200001,0,-162,-457,0
674.905518,-2.738281,-1.437500,-0.089844,0.000000,0.000000,-0.007998,0.021484,0.045410,2.514160,-0.003906,0.004639,0.000977,28.529510,51.200001,0,-161,-461,0
674.915283,-2.738281,-1.437500,-0.089844,0.000000,0.000000,-0.008198,0.021484,0.045654,2.514160,0.000977,0.004150,0.000488,28.529510,51.200001,0,-164,-463,0
674.925049,-2.738281,-1.437500,-0.089844,0.000000,0.000000,-0.008404,0.021484,0.045654,2.514160,0.000977,0.004150,-0.000977,28.529510,51.200001,0,-164,-462,0
674.934814,-2.738281,-1.437500,-0.089844,0.000000,0.000000,-0.008568,0.021484,0.045654,2.514160,0.003174,0.002686,0.000488,28.529510,51.200001,0,-166,-461,0
674.944580,-2.738281,-1.437500,-0.089844,0.000000,0.000000,-0.007549,0.021484,0.045654,2.514160,0.004639,0.000977,-0.001465,28.529510,51.200001,0,-166,-458,0
674.954346,-2.738281,-1.437500,-0.089844,0.000000,0.000000,-0.007519,0.021484,0.045654,2.514160,0.005859,0.001953,0.000488,28.529510,51.200001,0,-167,-460,0
674.964111,-2.738281,-1.437500,-0.089844,0.000000,0.000000,-0.007839,0.021484,0.045654,2.513916,0.005859,0.003174,0.001709,28.529510,51.200001,0,-167,-461,0
674.973877,-2.738281,-1.437500,-0.089844,0.000000,0.000000,-0.008167,0.021484,0.045654,2.513916,0.004150,0.001953,0.002197,28.529510,51.200001,0,-166,-460,0
674.983643,-2.738281,-1.437500,-0.089844,0.000000,0.000000,-0.008308,0.021484,0.045654,2.513916,0.005127,0.006348,0.002686,28.529510,51.200001,0,-167,-464,0
674.993408,-2.738281,-1.437500,-0.089844,0.000000,0.000000,-0.008703,0.021484,0.045654,2.513916,0.000977,0.003662,0.000488,28.529510,51.200001,0,-164,-462,0
675.003174,-2.738281,-1.437500,-0.089844,0.000000,0.000000,-0.009106,0.021484,0.045654,2.513916,-0.002197,0.004150,-0.004150,28.529510,51.200001,0,-162,-463,0
675.012939,-2.738281,-1.437500,-0.089844,0.000000,0.000000,-0.009012,0.021484,0.045654,2.513916,-0.001709,0.001465,-0.000977,28.529510,51.200001,0,-163,-461,0
675.022705,-2.738281,-1.437500,-0.089844,0.000000,0.000000,-0.010849,0.021484,0.045654,2.513916,-0.004395,0.000488,-0.001465,28.529510,51.200001,0,-161,-460,0
675.032471,-2.738281,-1.437500,-0.089844,0.000000,0.000000,-0.010782,0.021484,0.045654,2.513916,-0.002197,0.000977,-0.000977,28.529510,51.200001,0,-162,-460,0
675.042236,-2.738281,-1.437500,-0.089844,0.000000,0.000000,-0.011417,0.021484,0.045654,2.513916,-0.003174,0.000977,0.000000,28.529510,51.200001,0,-161,-460,0
675.052002,-2.738281,-1.437500,-0.089844,0.000000,0.000000,-0.010578,0.021484,0.045654,2.513916,-0.003906,0.000488,-0.000488,28.529510,51.200001,0,-161,-460,0
675.061768,-2.738281,-1.437500,-0.089844,0.000000,0.000000,-0.010807,0.021484,0.045898,2.513916,-0.002686,0.004150,0.002197,28.529510,51.200001,0,-162,-464,0
675.071533,-2.738281,-1.437500,-0.089844,0.000000,0.000000,-0.010859,0.021484,0.045898,2.513916,0.000488,0.001465,-0.000488,28.529510,51.200001,0,-164,-461,0
675.081299,-2.738281,-1.437500,-0.089844,0.000000,0.000000,-0.010130,0.021484,0.045898,2.513916,0.000977,0.002686,0.000000,28.529510,51.200001,0,-164,-462,0
675.091064,-2.738281,-1.437500,-0.089844,0.000000,0.000000,-0.010077,0.021484,0.045898,2.513916,0.004639,0.001953,0.000000,28.529510,51.200001,0,-167,-461,0
675.100830,-2.738281,-1.437500,-0.089844,0.000000,0.000000,-0.011095,0.021484,0.045898,2.513916,0.003662,0.004150,0.000488,28.529510,51.200001,0,-167,-464,0
675.110596,-2.738281,-1.437500,-0.089844,0.000000,0.000000,-0.011574,0.021484,0.045898,2.513916,0.003662,0.001953,-0.000977,28.529510,51.200001,0,-167,-462,0
675.120361,-2.738281,-1.437500,-0.089844,0.000000,0.000000,-0.010843,0.021484,0.045898,2.513916,0.003174,-0.001221,-0.000977,28.529510,51.200001,0,-166,-459,0
675.130127,-2.738281,-1.437500,-0.089844,0.000000,0.000000,-0.010759,0.021484,0.045898,2.513916,0.003662,0.002686,0.000977,28.529510,51.200001,0,-166,-463,0
675.139893,-2.738281,-1.437500,-0.089844,0.000000,0.000000,-0.010923,0.021484,0.045898,2.513916,0.003174,0.000488,-0.000977,28.529510,51.200001,0,-166,-461,0
675.149658,-2.738281,-1.437500,-0.089844,0.000000,0.000000,-0.010265,0.021484,0.045898,2.513916,0.002686,-0.001709,0.000000,28.529510,51.200001,0,-166,-459,0
675.159424,-2.738281,-1.437500,-0.089844,0.000000,0.000000,-0.010555,0.021484,0.045898,2.513916,0.000977,0.001953,0.000000,28.529510,51.200001,0,-164,-462,0
675.169189,-2.738281,-1.437500,-0.089844,0.000000,0.000000,-0.010887,0.021484,0.045898,2.513916,-0.002686,0.003174,-0.000977,28.529510,51.200001,0,-162,-464,0
675.178955,-2.738281,-1.437500,-0.089844,0.000000,0.000000,-0.010847,0.021484,0.045898,2.513916,0.000000,0.002686,0.000000,28.529510,51.200001,0,-164,-464,0
675.188721,-2.738281,-1.437500,-0.089844,0.000000,0.000000,-0.010260,0.021484,0.045898,2.513916,-0.002686,0.003174,-0.004150,28.529510,51.200001,0,-162,-465,0
675.198486,-2.738281,-1.437500,-0.089844,0.000000,0.000000,-0.010059,0.021484,0.045898,2.513916,-0.002197,0.001465,-0.001465,28.529510,51.200001,0,-163,-463,0
675.208252,-2.738281,-1.437500,-0.089844,0.000000,0.000000,-0.010292,0.021484,0.045898,2.513916,-0.002197,0.003174,-0.000977,28.529510,51.200001,0,-162,-464,0
675.218018,-2.738281,-1.437500,-0.089844,0.000000,0.000000,-0.009668,0.021484,0.045898,2.513916,-0.004395,0.000977,-0.000977,28.529510,51.200001,0,-160,-461,0
675.227783,-2.738281,-1.437500,-0.089844,0.000000,0.000000,-0.009874,0.021484,0.045898,2.513916,-0.001221,0.001953,-0.000977,28.529510,51.200001,0,-163,-462,0
675.237549,-2.738281,-1.437500,-0.089844,0.000000,0.000000,-0.010107,0.021484,0.045898,2.513916,0.001953,0.001953,0.000488,28.529510,51.200001,0,-165,-463,0
675.247314,-2.738281,-1.437500,-0.089844,0.000000,0.000000,-0.010654,0.021484,0.045898,2.513916,0.006348,0.004639,0.000977,28.529510,51.200001,0,-168,-466,0
675.257080,-2.738281,-1.437500,-0.089844,0.000000,0.000000,-0.009411,0.021484,0.045898,2.513916,0.005859,0.003662,0.000977,28.529510,51.200001,0,-168,-466,0
675.266846,-2.738281,-1.437500,-0.089844,0.000000,0.000000,-0.009552,0.021484,0.045898,2.513916,0.005859,0.001465,0.000977,28.529510,51.200001,0,-168,-464,0
675.276611,-2.738281,-1.437500,-0.089844,0.000000,0.000000,-0.009556,0.021484,0.045898,2.513916,0.006348,0.001953,0.000488,28.529510,51.200001,0,-169,-463,0
675.286377,-2.738281,-1.437500,-0.089844,0.000000,0.000000,-0.009432,0.021484,0.045898,2.513916,0.003662,-0.002197,-0.000488,28.529510,51.200001,0,-167,-459,0
675.296143,-2.738281,-1.437500,-0.089844,0.000000,0.000000,-0.009504,0.021729,0.045898,2.513916,0.000488,0.000977,0.000000,28.529510,51.200001,0,-165,-462,0
675.305908,-2.738281,-1.437500,-0.089844,0.000000,0.000000,-0.009556,0.021729,0.045898,2.513916,0.001953,0.001465,0.000000,28.529510,51.200001,0,-166,-463,0
675.315674,-2.738281,-1.437500,-0.089844,0.000000,0.000000,-0.009655,0.021815,0.046101,2.513899,-0.002686,0.001953,-0.001465,28.529510,51.200001,0,-162,-464,0
675.325439,-2.738281,-1.437500,-0.089844,0.000000,0.000000,-0.009178,0.021484,0.046143,2.513916,0.000000,0.003174,0.000000,28.529510,51.200001,0,-164,-466,0
675.335205,-2.738281,-1.437500,-0.089844,0.000000,0.000000,-0.008228,0.021484,0.046143,2.513916,-0.003174,0.003662,-0.001465,28.529510,51.200001,0,-162,-467,0
675.344971,-2.738281,-1.437500,-0.089844,0.000000,0.000000,-0.008345,0.021484,0.046143,2.513916,-0.004395,0.004150,-0.000488,28.529510,51.200001,0,-161,-467,0
675.354736,-2.738281,-1.437500,-0.089844,0.000000,0.000000,-0.008123,0.021484,0.046143,2.513916,-0.004395,0.003662,-0.001465,28.529510,51.200001,0,-161,-466,0
675.364502,-2.738281,-1.437500,-0.089844,0.000000,0.000000,-0.008640,0.021484,0.046143,2.513916,-0.005371,0.000000,-0.002197,28.529510,51.200001,0,-161,-462,0
675.374268,-2.738281,-1.437500,-0.089844,0.000000,0.000000,-0.008892,0.021484,0.046143,2.513916,-0.002197,0.001953,0.000488,28.529510,51.200001,0,-163,-464,0
675.384033,-2.738281,-1.437500,-0.089844,0.000000,0.000000,-0.009119,0.021484,0.046143,2.513916,0.001465,0.002686,-0.000977,28.529510,51.200001,0,-165,-466,0
675.393799,-2.738281,-1.437500,-0.089844,0.000000,0.000000,-0.008987,0.021729,0.046143,2.513672,0.000488,0.001953,0.001709,28.529510,51.200001,0,-165,-466,0
675.403564,-2.738281,-1.437500,-0.089844,0.000000,0.000000,-0.009071,0.021729,0.046143,2.513672,0.001465,0.003662,-0.001465,28.529510,51.200001,0,-166,-467,0
675.413330,-2.738281,-1.437500,-0.089844,0.000000,0.000000,-0.009029,0.021729,0.046143,2.513672,0.003174,0.000488,0.000000,28.529510,51.200001,0,-167,-463,0
675.423096,-2.738281,-1.437500,-0.089844,0.000000,0.000000,-0.008627,0.021729,0.046143,2.513672,0.004150,0.003662,-0.000977,28.529510,51.200001,0,-167,-466,0
675.432861,-2.738281,-1.437500,-0.089844,0.000000,0.000000,-0.009062,0.021729,0.046143,2.513672,0.005127,0.001465,0.002197,28.529510,51.200001,0,-168,-466,0
675.442627,-2.738281,-1.437500,-0.089844,0.000000,0.000000,-0.009083,0.021729,0.046143,2.513672,0.004639,0.003662,-0.000488,28.529510,51.200001,0,-167,-467,0
675.452393,-2.738281,-1.437500,-0.089844,0.000000,0.000000,-0.009371,0.021729,0.046143,2.513672,0.005859,0.003174,0.000488,28.529510,51.200001,0,-169,-467,0
675.462158,-2.738281,-1.437500,-0.089844,0.000000,0.000000,-0.009264,0.021729,0.046143,2.513672,0.000977,0.000977,0.000488,28.529510,51.200001,0,-165,-465,0
675.471924,-2.738281,-1.437500,-0.089844,0.000000,0.000000,-0.009706,0.021729,0.046143,2.513672,0.003174,0.005371,0.000000,28.529510,51.200001,0,-167,-469,0
675.481689,-2.738281,-1.437500,-0.089844,0.000000,0.000000,-0.009991,0.021729,0.046143,2.513672,0.002686,0.003174,-0.002197,28.529510,51.200001,0,-166,-468,0
675.491455,-2.738281,-1.437500,-0.089844,0.000000,0.000000,-0.009512,0.021729,0.046143,2.513672,-0.000488,-0.001221,-0.002197,28.529510,51.200001,0,-164,-464,0
675.501221,-2.738281,-1.437500,-0.089844,0.000000,0.000000,-0.009869,0.021729,0.046143,2.513672,-0.002686,0.003174,-0.001465,28.529510,51.200001,0,-163,-468,0
675.510986,-2.738281,-1.437500,-0.089844,0.000000,0.000000,-0.010256,0.021729,0.046387,2.513672,-0.003906,0.001953,-0.000488,28.529510,51.200001,0,-161,-467,0
675.520752,-2.738281,-1.437500,-0.089844,0.000000,0.000000,-0.009352,0.021729,0.046387,2.513672,-0.005371,0.002686,-0.002197,28.529510,51.200001,0,-161,-468,0
675.530518,-2.738281,-1.437500,-0.089844,0.000000,0.000000,-0.009678,0.021729,0.046387,2.513672,-0.002197,0.000977,-0.001465,28.529510,51.200001,0,-163,-465,0
675.540283,-2.738281,-1.437500,-0.089844,0.000000,0.000000,-0.009953,0.021833,0.046430,2.513761,0.000488,0.004150,0.000000,28.529510,51.200001,0,-166,-464,0
675.550049,-2.738281,-1.437500,-0.089844,0.000000,0.000000,-0.010048,0.021729,0.046387,2.513672,-0.003174,0.003174,-0.002197,28.529510,51.200001,0,-163,-467,0
675.559814,-2.738281,-1.437500,-0.089844,0.000000,0.000000,-0.009354,0.021729,0.046387,2.513672,0.000488,0.004150,0.000488,28.529510,51.200001,0,-165,-469,0
675.569580,-2.738281,-1.437500,-0.089844,0.000000,0.000000,-0.010481,0.021729,0.046387,2.513672,0.003174,0.003662,0.002197,28.529510,51.200001,0,-167,-469,0
675.579346,-2.738281,-1.437500,-0.089844,0.000000,0.000000,-0.010574,0.021729,0.046387,2.513672,0.000000,0.001953,0.000000,28.529510,51.200001,0,-165,-468,0
675.589111,-2.738281,-1.437500,-0.089844,0.000000,0.000000,-0.009541,0.021729,0.046387,2.513672,0.004639,0.001465,-0.000977,28.529510,51.200001,0,-168,-467,0
675.598877,-2.738281,-1.437500,-0.089844,0.000000,0.000000,-0.010147,0.021729,0.046387,2.513672,0.004150,0.004639,0.000488,28.529510,51.200001,0,-168,-471,0
675.608643,-2.738281,-1.437500,-0.089844,0.000000,0.000000,-0.010557,0.021729,0.046387,2.513672,0.006348,0.000977,-0.002686,28.529510,51.200001,0,-169,-467,0
675.618408,-2.738281,-1.437500,-0.089844,0.000000,0.000000,-0.010725,0.021729,0.046387,2.513672,0.004150,0.003174,0.000977,28.529510,51.200001,0,-168,-469,0
675.628174,-2.738281,-1.437500,-0.089844,0.000000,0.000000,-0.009851,0.021729,0.046387,2.513672,0.004639,0.001465,0.000488,28.529510,51.200001,0,-168,-467,0
675.637939,-2.738281,-1.437500,-0.089844,0.000000,0.000000,-0.010273,0.021729,0.046387,2.513672,0.005859,0.001953,-0.000977,28.529510,51.200001,0,-169,-467,0
675.647705,-2.738281,-1.437500,-0.089844,0.000000,0.000000,-0.015518,0.021729,0.046387,2.513672,0.002686,0.002686,-0.002197,28.529510,51.200001,0,-167,-468,0
675.657471,-2.738281,-1.437500,-0.089844,0.000000,0.000000,-0.013813,0.021729,0.046387,2.513672,0.000977,0.001953,-0.001465,28.529510,51.200001,0,-166,-469,0
675.667236,-2.738281,-1.437500,-0.089844,0.000000,0.000000,-0.013889,0.021729,0.046387,2.513672,0.000488,0.001953,0.000488,28.529510,51.200001,0,-165,-468,0
675.677002,-2.738281,-1.437500,-0.089844,0.000000,0.000000,-0.014147,0.021729,0.046387,2.513672,-0.001221,0.003174,-0.000488,28.529510,51.200001,0,-164,-469,0
675.686768,-2.738281,-1.437500,-0.089844,0.000000,0.000000,-0.014378,0.021729,0.046387,2.513672,0.000000,0.001465,-0.003662,28.529510,51.200001,0,-165,-469,0
675.696533,-2.738281,-1.437500,-0.089844,0.000000,0.000000,-0.014427,0.021729,0.046387,2.513672,-0.002197,0.004150,-0.000488,28.529510,51.200001,0,-163,-471,0
675.706299,-2.738281,-1.437500,-0.089844,0.000000,0.000000,-0.012831,0.021729,0.046387,2.513672,-0.002686,0.001465,-0.001465,28.529510,51.200001,0,-163,-469,0
675.716064,-2.738281,-1.437500,-0.089844,0.000000,0.000000,-0.013401,0.021729,0.046387,2.513672,-0.001709,0.000488,-0.001465,28.529510,51.200001,0,-164,-467,0
675.725830,-2.738281,-1.437500,-0.089844,0.000000,0.000000,-0.013393,0.021729,0.046387,2.513672,-0.002686,0.001953,-0.003662,28.529510,51.200001,0,-163,-468,0
675.735596,-2.738281,-1.437500,-0.089844,0.000000,0.000000,-0.013243,0.021729,0.046387,2.513672,-0.003906,0.001465,0.000000,28.529510,51.200001,0,-163,-468,0
675.745361,-2.738281,-1.437500,-0.089844,0.000000,0.000000,-0.013603,0.021729,0.046387,2.513672,-0.003906,0.004639,0.000977,28.529510,51.200001,0,-162,-471,0
675.755127,-2.738281,-1.437500,-0.089844,0.000000,0.000000,-0.012449,0.021729,0.046631,2.513672,-0.002686,0.004639,-0.002197,28.529510,51.200001,0,-163,-472,0
675.764893,-2.738281,-1.437500,-0.089844,0.000000,0.000000,-0.012709,0.021729,0.046631,2.513672,-0.001709,0.000977,0.000000,28.529510,51.200001,0,-164,-469,0
675.774658,-2.738281,-1.437500,-0.089844,0.000000,0.000000,-0.012829,0.021729,0.046631,2.513672,0.001953,0.002686,-0.000488,28.529510,51.200001,0,-167,-470,0
675.784424,-2.738281,-1.437500,-0.089844,0.000000,0.000000,-0.012831,0.021729,0.046631,2.513672,-0.000488,0.004639,-0.000488,28.529510,51.200001,0,-166,-472,0
675.794189,-2.738281,-1.437500,-0.089844,0.000000,0.000000,-0.011284,0.021729,0.046631,2.513672,0.002686,-0.000488,0.002197,28.529510,51.200001,0,-167,-467,0
675.803955,-2.738281,-1.437500,-0.089844,0.000000,0.000000,-0.012518,0.021729,0.046631,2.513428,0.004639,0.003662,0.000488,28.529510,51.200001,0,-169,-471,0
675.813721,-2.738281,-1.437500,-0.089844,0.000000,0.000000,-0.012520,0.021729,0.046631,2.513428,0.004150,0.000000,-0.000488,28.529510,51.200001,0,-168,-468,0
675.823486,-2.738281,-1.437500,-0.089844,0.000000,0.000000,-0.011087,0.021729,0.046631,2.513428,0.006348,0.000977,0.002197,28.529510,51.200001,0,-169,-469,0
675.833252,-2.738281,-1.437500,-0.089844,0.000000,0.000000,-0.011585,0.021729,0.046631,2.513428,0.007324,0.005859,0.002197,28.529510,51.200001,0,-171,-473,0
675.843018,-2.738281,-1.437500,-0.089844,0.000000,0.000000,-0.011824,0.021729,0.046631,2.513428,0.005127,0.003662,0.000488,28.529510,51.200001,0,-169,-471,0
675.852783,-2.738281,-1.437500,-0.089844,0.000000,0.000000,-0.011959,0.021729,0.046631,2.513428,0.004639,0.002686,0.000488,28.529510,51.200001,0,-169,-471,0
675.862549,-2.738281,-1.437500,-0.089844,0.000000,0.000000,-0.010780,0.021729,0.046631,2.513428,0.004150,0.001465,-0.000488,28.529510,51.200001,0,-168,-470,0
675.872314,-2.738281,-1.437500,-0.089844,0.000000,0.000000,-0.010960,0.021729,0.046631,2.513428,0.003662,0.000977,0.001709,28.529510,51.200001,0,-168,-469,0
675.882080,-2.738281,-1.437500,-0.089844,0.000000,0.000000,-0.011677,0.021729,0.046631,2.513428,0.002686,0.003662,-0.000488,28.529510,51.200001,0,-167,-473,0
675.891846,-2.738281,-1.437500,-0.089844,0.000000,0.000000,-0.011702,0.021973,0.046631,2.513428,0.002686,0.003662,-0.003174,28.529510,51.200001,0,-168,-473,0
675.901611,-2.738281,-1.437500,-0.089844,0.000000,0.000000,-0.010143,0.021973,0.046631,2.513428,-0.002686,0.001465,-0.000488,28.529510,51.200001,0,-164,-470,0
675.911377,-2.738281,-1.437500,-0.089844,0.000000,0.000000,-0.010344,0.021973,0.046631,2.513428,0.001465,0.003174,-0.003662,28.529510,51.200001,0,-167,-472,0
675.921143,-2.738281,-1.437500,-0.089844,0.000000,0.000000,-0.010101,0.022024,0.046816,2.513530,-0.003174,0.002686,0.000488,28.529510,51.200001,0,-164,-471,0
675.930908,-2.738281,-1.437500,-0.089844,0.000000,0.000000,-0.008795,0.021973,0.046631,2.513428,-0.003906,0.000488,-0.002197,28.529510,51.200001,0,-163,-469,0
675.940674,-2.738281,-1.437500,-0.089844,0.000000,0.000000,-0.009012,0.021729,0.046875,2.513428,-0.003174,0.001953,-0.000977,28.529510,51.200001,0,-163,-472,0
675.950439,-2.738281,-1.437500,-0.089844,0.000000,0.000000,-0.008917,0.021973,0.046875,2.513428,-0.001709,0.000488,-0.002197,28.529510,51.200001,0,-165,-469,0
675.960205,-2.738281,-1.437500,-0.089844,0.000000,0.000000,-0.006901,0.021973,0.046875,2.513428,-0.003906,0.001953,-0.000977,28.529510,51.200001,0,-164,-471,0
675.969971,-2.738281,-1.437500,-0.089844,0.000000,0.000000,-0.007317,0.021973,0.046875,2.513428,-0.004883,0.003662,0.000000,28.529510,51.200001,0,-163,-474,0
675.979736,-2.738281,-1.437500,-0.089844,0.000000,0.000000,-0.007309,0.021973,0.046875,2.513428,-0.001221,0.001465,-0.002197,28.529510,51.200001,0,-165,-472,0
675.989502,-2.738281,-1.437500,-0.089844,0.000000,0.000000,-0.007769,0.021973,0.046875,2.513428,-0.001709,0.001953,-0.002686,28.529510,51.200001,0,-165,-472,0
675.999268,-2.738281,-1.437500,-0.089844,0.000000,0.000000,-0.007381,0.021973,0.046875,2.513428,-0.002686,0.003662,0.002197,28.529510,51.200001,0,-164,-474,0
676.009033,-2.738281,-1.437500,-0.089844,0.000000,0.000000,-0.007208,0.021973,0.046875,2.513428,0.001465,0.005371,0.000977,28.529510,51.200001,0,-167,-476,0
676.018799,-2.738281,-1.437500,-0.089844,0.000000,0.000000,-0.007404,0.021973,0.046875,2.513428,0.000977,0.003174,-0.002197,28.529510,51.200001,0,-167,-474,0
676.028564,-2.738281,-1.437500,-0.089844,0.000000,0.000000,-0.007402,0.021973,0.046875,2.513428,0.001953,0.003662,-0.003174,28.529510,51.200001,0,-168,-474,0
676.038330,-2.738281,-1.437500,-0.089844,0.000000,0.000000,-0.009451,0.021973,0.046875,2.513428,0.001953,0.001465,0.002197,28.529510,51.200001,0,-168,-474,0
676.048096,-2.738281,-1.437500,-0.089844,0.000000,0.000000,-0.009457,0.021973,0.046875,2.513428,0.001953,0.004150,0.002197,28.529510,51.200001,0,-168,-476,0
676.057861,-2.738281,-1.437500,-0.089844,0.000000,0.000000,-0.008402,0.021973,0.046875,2.513428,0.006836,0.001465,0.000000,28.529510,51.200001,0,-172,-473,0
676.067627,-2.738281,-1.437500,-0.089844,0.000000,0.000000,-0.008768,0.021973,0.046875,2.513428,0.006348,0.005371,0.000000,28.529510,51.200001,0,-171,-477,0
676.077393,-2.738281,-1.437500,-0.089844,0.000000,0.000000,-0.008764,0.021973,0.047119,2.513428,0.002686,0.004639,-0.000488,28.529510,51.200001,0,-168,-477,0
676.087158,-2.738281,-1.437500,-0.089844,0.000000,0.000000,-0.009155,0.021973,0.047119,2.513428,0.006348,0.004639,-0.001465,28.529510,51.200001,0,-170,-476,0
676.096924,-2.738281,-1.437500,-0.089844,0.000000,0.000000,-0.008572,0.021973,0.047119,2.513428,0.005127,0.001465,0.000000,28.529510,51.200001,0,-170,-473,0
676.106689,-2.738281,-1.437500,-0.089844,0.000000,0.000000,-0.008535,0.021973,0.047119,2.513428,0.006348,0.000488,0.002686,28.529510,51.200001,0,-170,-472,0
676.116455,-2.738281,-1.437500,-0.089844,0.000000,0.000000,-0.008760,0.021973,0.047119,2.513428,0.004639,0.002686,-0.001465,28.529510,51.200001,0,-169,-474,0
676.126221,-2.738281,-1.437500,-0.089844,0.000000,0.000000,-0.009123,0.021973,0.047119,2.513428,0.004639,0.001465,-0.002197,28.529510,51.200001,0,-170,-473,0
676.135986,-2.738281,-1.437500,-0.089844,0.000000,0.000000,-0.007967,0.021973,0.047119,2.513428,-0.000488,0.003662,-0.000977,28.529510,51.200001,0,-167,-475,0
676.145752,-2.738281,-1.437500,-0.089844,0.000000,0.000000,-0.008318,0.021973,0.047119,2.513428,0.003174,0.001953,-0.002197,28.529510,51.200001,0,-169,-474,0
676.155518,-2.738281,-1.437500,-0.089844,0.000000,0.000000,-0.008167,0.021973,0.047119,2.513428,0.004639,0.001953,0.000000,28.529510,51.200001,0,-170,-475,0
676.165283,-2.738281,-1.437500,-0.089844,0.000000,0.000000,-0.007177,0.021973,0.047119,2.513428,0.001465,0.005859,-0.000488,28.529510,51.200001,0,-168,-478,0
676.175049,-2.738281,-1.437500,-0.089844,0.000000,0.000000,-0.007515,0.021973,0.047119,2.513428,-0.001709,0.001953,-0.003662,28.529510,51.200001,0,-165,-475,0
676.184814,-2.738281,-1.437500,-0.089844,0.000000,0.000000,-0.007975,0.021973,0.047119,2.513428,-0.000488,0.000000,0.000488,28.529510,51.200001,0,-166,-473,0
676.194580,-2.738281,-1.437500,-0.089844,0.000000,0.000000,-0.008495,0.021973,0.047119,2.513428,-0.001221,0.003174,0.000000,28.529510,51.200001,0,-165,-476,0
676.204346,-2.738281,-1.437500,-0.089844,0.000000,0.000000,-0.008535,0.021973,0.047119,2.513428,-0.003174,0.002686,-0.002197,28.529510,51.200001,0,-164,-474,0
676.214111,-2.738281,-1.437500,-0.089844,0.000000,0.000000,-0.008909,0.021973,0.047119,2.513428,-0.004395,-0.001709,-0.000488,28.529510,51.200001,0,-163,-472,0
676.223877,-2.738281,-1.437500,-0.089844,0.000000,0.000000,-0.009256,0.022140,0.047241,2.513397,-0.005859,0.001953,-0.000488,28.529510,51.200001,0,-162,-476,0
676.233643,-2.738281,-1.437500,-0.089844,0.000000,0.000000,-0.008669,0.021973,0.047119,2.513428,-0.005371,0.000977,-0.000488,28.529510,51.200001,0,-163,-474,0
676.243408,-2.738281,-1.437500,-0.089844,0.000000,0.000000,-0.008707,0.021973,0.047119,2.513428,-0.004883,0.001953,0.000000,28.529510,51.200001,0,-163,-475,0
676.253174,-2.738281,-1.437500,-0.089844,0.000000,0.000000,-0.008587,0.021973,0.047119,2.513428,-0.001709,0.001465,0.001709,28.529510,51.200001,0,-166,-475,0
676.262939,-2.738281,-1.437500,-0.089844,0.000000,0.000000,-0.007677,0.021973,0.047119,2.513428,-0.002686,0.001465,-0.000488,28.529510,51.200001,0,-165,-475,0
676.272705,-2.738281,-1.437500,-0.089844,0.000000,0.000000,-0.005247,0.021973,0.047119,2.513428,-0.001709,0.001465,0.001709,28.529510,51.200001,0,-166,-476,0
676.282471,-2.738281,-1.437500,-0.089844,0.000000,0.000000,-0.005255,0.021973,0.047119,2.513428,-0.002197,0.001465,-0.004150,28.529510,51.200001,0,-167,-475,0
676.292236,-2.738281,-1.437500,-0.089844,0.000000,0.000000,-0.005495,0.021973,0.047119,2.513428,-0.001221,0.002686,-0.001465,28.529510,51.200001,0,-166,-476,0
676.302002,-2.738281,-1.437500,-0.089844,0.000000,0.000000,-0.005331,0.021973,0.047119,2.513428,-0.000488,0.001953,-0.001465,28.529510,51.200001,0,-166,-477,0
676.311768,-2.738281,-1.437500,-0.089844,0.000000,0.000000,-0.005281,0.021973,0.047119,2.513428,0.002686,0.005371,0.002197,28.529510,51.200001,0,-168,-479,0
676.321533,-2.738281,-1.437500,-0.089844,0.000000,0.000000,-0.005501,0.021973,0.047119,2.513428,0.003174,0.000488,0.000488,28.529510,51.200001,0,-169,-475,0
676.331299,-2.738281,-1.437500,-0.089844,0.000000,0.000000,-0.005711,0.021973,0.047363,2.513428,0.003662,0.001953,0.000488,28.529510,51.200001,0,-169,-476,0
676.341064,-2.738281,-1.437500,-0.089844,0.000000,0.000000,-0.006130,0.021973,0.047363,2.513428,0.004150,0.002686,0.000977,28.529510,51.200001,0,-169,-477,0
676.350830,-2.738281,-1.437500,-0.089844,0.000000,0.000000,-0.004683,0.021973,0.047363,2.513428,0.003174,0.001465,0.000000,28.529510,51.200001,0,-168,-476,0
676.360596,-2.738281,-1.437500,-0.089844,0.000000,0.000000,-0.004684,0.021973,0.047363,2.513428,0.004639,0.000977,0.003174,28.529510,51.200001,0,-169,-475,0
676.370361,-2.738281,-1.437500,-0.089844,0.000000,0.000000,-0.004925,0.021973,0.047363,2.513428,0.003174,0.001465,0.000488,28.529510,51.200001,0,-168,-476,0
676.380127,-2.738281,-1.437500,-0.089844,0.000000,0.000000,-0.004892,0.021973,0.047363,2.513428,0.005859,0.001953,0.000488,28.529510,51.200001,0,-170,-477,0
676.389893,-2.738281,-1.437500,-0.089844,0.000000,0.000000,-0.004934,0.021973,0.047363,2.513428,0.005127,0.001953,0.003174,28.529510,51.200001,0,-171,-477,0
676.399658,-2.738281,-1.437500,-0.089844,0.000000,0.000000,-0.005148,0.021973,0.047363,2.513428,0.005127,0.000488,-0.000488,28.529510,51.200001,0,-171,-476,0
676.409424,-2.738281,-1.437500,-0.089844,0.000000,0.000000,-0.005272,0.021973,0.047363,2.513428,0.006348,0.003662,-0.002197,28.529510,51.200001,0,-171,-478,0
676.419189,-2.738281,-1.437500,-0.089844,0.000000,0.000000,-0.005375,0.021973,0.047363,2.513428,0.005859,0.004639,0.002197,28.529510,51.200001,0,-171,-480,0
676.428955,-2.738281,-1.437500,-0.085938,0.000000,0.000000,-0.004089,0.021973,0.047363,2.513184,0.001953,0.001465,0.000000,28.529510,51.200001,0,-168,-476,0
676.438721,-2.738281,-1.437500,-0.085938,0.000000,0.000000,-0.004318,0.021973,0.047363,2.513184,0.001953,0.001953,-0.000488,28.529510,51.200001,0,-168,-476,0
676.448486,-2.738281,-1.437500,-0.089844,0.000000,0.000000,-0.004654,0.021973,0.047363,2.513184,0.000977,0.000000,0.001709,28.529510,51.200001,0,-167,-475,0
676.458252,-2.738281,-1.437500,-0.089844,0.000000,0.000000,-0.004957,0.021973,0.047363,2.513184,0.001953,0.004150,0.000000,28.529510,51.200001,0,-168,-479,0
676.468018,-2.738281,-1.437500,-0.089844,0.000000,0.000000,-0.005363,0.021973,0.047363,2.513184,-0.003174,0.004639,0.000977,28.529510,51.200001,0,-165,-481,0
676.477783,-2.738281,-1.437500,-0.089844,0.000000,0.000000,-0.005552,0.021973,0.047363,2.513184,-0.000488,0.003662,0.000977,28.529510,51.200001,0,-166,-480,0
676.487549,-2.738281,-1.437500,-0.089844,0.000000,0.000000,-0.006323,0.021973,0.047363,2.513184,-0.004395,-0.000488,-0.003174,28.529510,51.200001,0,-164,-476,0
676.497314,-2.738281,-1.437500,-0.089844,0.000000,0.000000,-0.006281,0.021973,0.047363,2.513184,-0.002686,0.000977,-0.002686,28.529510,51.200001,0,-165,-477,0
676.507080,-2.738281,-1.437500,-0.085938,0.000000,0.000000,-0.004189,0.021973,0.047363,2.513184,-0.003174,0.001465,0.000488,28.529510,51.200001,0,-165,-477,0
676.516846,-2.738281,-1.437500,-0.085938,0.000000,0.000000,-0.004353,0.021973,0.047363,2.513184,-0.002197,0.002686,-0.000977,28.529510,51.200001,0,-165,-479,0
