time,pos_x,pos_y,pos_z,vel_x,vel_y,vel_z,att_phi,att_theta,att_psi,rate_p,rate_q,rate_r,distance,cmd_thrust,cmd_roll,cmd_pitch,cmd_yaw
114.822960,0.000000,0.000000,0.000000,0.000000,0.000000,0.000000,0.031006,0.041992,0.064453,0.002197,0.000000,0.002197,0.000000,0,-4500,-4500,0
114.831741,0.000000,0.000000,0.000000,0.000000,0.000000,0.000000,0.031006,0.041992,0.064453,0.000000,0.000977,-0.001465,0.000000,0,-4500,-4500,0
114.841515,0.000000,0.000000,0.000000,0.000000,0.000000,0.000000,0.031288,0.042051,0.064533,0.002686,-0.000732,0.002686,0.000000,0,-4500,-4500,0
114.851273,0.000000,0.000000,0.000000,0.000000,0.000000,0.000000,0.031006,0.041992,0.064453,0.002686,-0.002197,-0.001953,0.000000,0,-4500,-4500,0
114.861046,0.000000,0.000000,0.000000,0.000000,0.000000,0.000000,0.031006,0.041992,0.064453,0.003662,0.001465,0.003662,0.000000,0,-4500,-4500,0
114.870804,0.000000,0.000000,0.000000,0.000000,0.000000,0.000000,0.031006,0.041992,0.064453,0.004150,-0.001221,0.000000,0.000000,0,-4500,-4500,0
114.880577,0.000000,0.000000,0.000000,0.000000,0.000000,0.000000,0.031006,0.041992,0.064453,0.005859,0.000000,-0.000977,0.000000,0,-4500,-4500,0
114.890366,0.000000,0.000000,0.000000,0.000000,0.000000,0.000000,0.031006,0.041992,0.064453,0.005371,-0.001221,-0.002441,0.000000,0,-4500,-4500,0
114.900101,0.000000,0.000000,0.000000,0.000000,0.000000,0.000000,0.031006,0.041992,0.064453,0.003662,0.000977,0.000488,0.000000,0,-4500,-4500,0
114.909866,0.000000,0.000000,0.000000,0.000000,0.000000,0.000000,0.031006,0.041992,0.064453,0.006348,0.001465,0.001221,0.000000,0,-4500,-4500,0
114.919632,0.000000,0.000000,0.000000,0.000000,0.000000,0.000000,0.031006,0.041992,0.064453,0.007568,0.000488,0.002686,0.000000,0,-4500,-4500,0
114.929398,0.000000,0.000000,0.000000,0.000000,0.000000,0.000000,0.031006,0.041992,0.064453,0.002197,0.000488,0.001221,0.000000,0,-4500,-4500,0
114.939163,0.000000,0.000000,0.000000,0.000000,0.000000,0.000000,0.031006,0.041992,0.064453,0.004150,-0.001221,0.000488,0.000000,0,-4500,-4500,0
114.948929,0.000000,0.000000,0.000000,0.000000,0.000000,0.000000,0.031006,0.041992,0.064453,0.006348,-0.001709,0.003662,0.000000,0,-4500,-4500,0
114.958694,0.000000,0.000000,0.000000,0.000000,0.000000,0.000000,0.031006,0.041992,0.064453,0.003662,0.000977,0.000488,0.000000,0,-4500,-4500,0
114.968460,0.000000,0.000000,0.000000,0.000000,0.000000,0.000000,0.031006,0.041992,0.064453,0.004883,-0.001221,-0.001465,0.000000,0,-4500,-4500,0
114.978226,0.000000,0.000000,0.000000,0.000000,0.000000,0.000000,0.031006,0.041992,0.064453,0.000000,0.003174,0.000488,0.000000,0,-4500,-4500,0
114.987991,0.000000,0.000000,0.000000,0.000000,0.000000,0.000000,0.031006,0.041992,0.064453,0.000977,0.001465,0.000488,0.000000,0,-4500,-4500,0
114.997757,0.000000,0.000000,0.000000,0.000000,0.000000,0.000000,0.031006,0.041992,0.064453,0.002686,0.001953,-0.000977,0.000000,0,-4500,-4500,0
115.007523,0.000000,0.000000,0.000000,0.000000,0.000000,0.000000,0.031006,0.041992,0.064453,-0.001465,0.001465,0.001221,0.000000,0,-4500,-4500,0
115.017288,0.000000,0.000000,0.000000,0.000000,0.000000,0.000000,0.031006,0.041992,0.064453,0.000488,-0.001221,0.002686,0.000000,0,-4500,-4500,0
115.027054,0.000000,0.000000,0.000000,0.000000,0.000000,0.000000,0.031006,0.041992,0.064453,-0.001465,0.000977,0.000000,0.000000,0,-4500,-4500,0
115.040733,0.000000,0.000000,0.000000,0.000000,0.000000,0.000000,0.031006,0.041992,0.064453,-0.002197,0.004150,0.000000,0.000000,0,-4500,-4500,0
115.052452,0.000000,0.000000,0.000000,0.000000,0.000000,0.000000,0.031356,0.042169,0.064659,-0.001465,-0.002197,0.001221,0.000000,0,-4500,-4500,0
115.064178,0.000000,0.000000,0.000000,0.000000,0.000000,0.000000,0.031250,0.041992,0.064453,0.000977,0.000977,0.000488,0.000000,0,-4500,-4500,0
115.073929,0.000000,0.000000,0.000000,0.000000,0.000000,0.000000,0.031250,0.041992,0.064453,0.007568,0.000000,0.002197,0.000000,0,-4500,-4500,0
115.083694,0.000000,0.000000,0.000000,0.000000,0.000000,0.000000,0.031250,0.041992,0.064453,0.003662,0.002686,0.000488,0.000000,0,-4500,-4500,0
115.093468,0.000000,0.000000,0.000000,0.000000,0.000000,0.000000,0.031250,0.041992,0.064453,0.002686,-0.001221,0.001709,0.000000,0,-4500,-4500,0
115.103233,0.000000,0.000000,0.000000,0.000000,0.000000,0.000000,0.031250,0.041992,0.064453,0.004150,-0.001709,0.001221,0.000000,0,-4500,-4500,0
115.112991,0.000000,0.000000,0.000000,0.000000,0.000000,0.000000,0.031250,0.041992,0.064453,0.004883,0.000488,0.001709,0.000000,0,-4500,-4500,0
115.122757,0.000000,0.000000,0.000000,0.000000,0.000000,0.000000,0.031250,0.041992,0.064453,0.003662,0.000977,0.001709,0.000000,0,-4500,-4500,0
115.132523,0.000000,0.000000,0.000000,0.000000,0.000000,0.000000,0.031250,0.041992,0.064453,0.003662,-0.002197,0.001709,0.000000,0,-4500,-4500,0
115.142288,0.000000,0.000000,0.000000,0.000000,0.000000,0.000000,0.031250,0.041992,0.064453,0.003662,0.001465,0.000000,0.000000,0,-4500,-4500,0
115.152054,0.000000,0.000000,0.000000,0.000000,0.000000,0.000000,0.031250,0.041992,0.064453,0.003174,-0.000732,0.000000,0.000000,0,-4500,-4500,0
115.161827,0.000000,0.000000,0.000000,0.000000,0.000000,0.000000,0.031250,0.041992,0.064453,-0.000977,-0.000732,0.001221,0.000000,0,-4500,-4500,0
115.171585,0.000000,0.000000,0.000000,0.000000,0.000000,0.000000,0.031250,0.041992,0.064453,0.001709,0.002686,0.001709,0.000000,0,-4500,-4500,0
115.181351,0.000000,0.000000,0.000000,0.000000,0.000000,0.000000,0.031250,0.041992,0.064453,0.002197,0.001953,0.001221,0.000000,0,-4500,-4500,0
115.191116,0.000000,0.000000,0.000000,0.000000,0.000000,0.000000,0.031250,0.041992,0.064453,-0.002686,0.000488,-0.000977,0.000000,0,-4500,-4500,0
115.200882,0.000000,0.000000,0.000000,0.000000,0.000000,0.000000,0.031250,0.041992,0.064453,0.000000,0.001465,0.000000,0.000000,0,-4500,-4500,0
115.210655,0.000000,0.000000,0.000000,0.000000,0.000000,0.000000,0.031250,0.041992,0.064453,-0.001465,0.000488,-0.001465,0.000000,0,-4500,-4500,0
115.220413,0.000000,0.000000,0.000000,0.000000,0.000000,0.000000,0.031250,0.041992,0.064453,0.001709,0.001953,0.002197,0.000000,0,-4500,-4500,0
115.230179,0.000000,0.000000,0.000000,0.000000,0.000000,0.000000,0.031250,0.041992,0.064453,-0.000488,0.001953,-0.001465,0.000000,0,-4500,-4500,0
115.239944,0.000000,0.000000,0.000000,0.000000,0.000000,0.000000,0.031250,0.041992,0.064453,-0.004150,-0.001221,-0.000977,0.000000,0,-4500,-4500,0
115.249710,0.000000,0.000000,0.000000,0.000000,0.000000,0.000000,0.031250,0.041992,0.064453,-0.001465,0.000977,-0.000488,0.000000,0,-4500,-4500,0
115.259476,0.000000,0.000000,0.000000,0.000000,0.000000,0.000000,0.031250,0.041992,0.064453,-0.005371,0.002686,0.000488,0.000000,0,-4500,-4500,0
115.269241,0.000000,0.000000,0.000000,0.000000,0.000000,0.000000,0.031250,0.041992,0.064453,-0.000488,0.005127,-0.000488,0.000000,0,-4500,-4500,0
115.279015,0.000000,0.000000,0.000000,0.000000,0.000000,0.000000,0.031250,0.041992,0.064453,-0.003662,0.001465,0.000000,0.000000,0,-4500,-4500,0
115.290733,0.000000,0.000000,0.000000,0.000000,0.000000,0.000000,0.031250,0.041992,0.064453,0.005859,0.000977,0.001709,0.000000,0,-4500,-4500,0
115.300499,0.000000,0.000000,0.000000,0.000000,0.000000,0.000000,0.031357,0.042168,0.064720,0.003174,0.000977,0.001221,0.000000,0,-4500,-4500,0
115.310257,0.000000,0.000000,0.000000,0.000000,0.000000,0.000000,0.031250,0.041992,0.064453,0.003662,0.001465,0.003662,0.000000,0,-4500,-4500,0
115.320030,0.000000,0.000000,0.000000,0.000000,0.000000,0.000000,0.031250,0.041992,0.064453,0.005859,-0.001221,0.001221,0.000000,0,-4500,-4500,0
115.329788,0.000000,0.000000,0.000000,0.000000,0.000000,0.000000,0.031250,0.041992,0.064453,0.005859,-0.001709,0.003662,0.000000,0,-4500,-4500,0
115.339554,0.000000,0.000000,0.000000,0.000000,0.000000,0.000000,0.031250,0.041992,0.064453,0.003662,-0.001221,0.000000,0.000000,0,-4500,-4500,0
115.349319,0.000000,0.000000,0.000000,0.000000,0.000000,0.000000,0.031250,0.041992,0.064697,0.004883,-0.004395,0.003662,0.000000,0,-4500,-4500,0
115.359085,0.000000,0.000000,0.000000,0.000000,0.000000,0.000000,0.031250,0.041992,0.064697,0.002197,0.001465,0.000488,0.000000,0,-4500,-4500,0
115.368851,0.000000,0.000000,0.000000,0.000000,0.000000,0.000000,0.031250,0.041992,0.064697,0.005859,0.000488,0.001221,0.000000,0,-4500,-4500,0
115.378616,0.000000,0.000000,0.000000,0.000000,0.000000,0.000000,0.031250,0.041992,0.064697,0.003174,0.001953,-0.000488,0.000000,0,-4500,-4500,0
115.388382,0.000000,0.000000,0.000000,0.000000,0.000000,0.000000,0.031250,0.041992,0.064697,0.005371,0.001953,0.001221,0.000000,0,-4500,-4500,0
115.398148,0.000000,0.000000,0.000000,0.000000,0.000000,0.000000,0.031250,0.041992,0.064697,0.000488,-0.003174,0.001709,0.000000,0,-4500,-4500,0
115.407913,0.000000,0.000000,0.000000,0.000000,0.000000,0.000000,0.031250,0.041992,0.064697,0.007568,0.001953,0.001221,0.000000,0,-4500,-4500,0
115.417686,0.000000,0.000000,0.000000,0.000000,0.000000,0.000000,0.031250,0.041992,0.064697,0.004150,0.000488,0.000488,0.000000,0,-4500,-4500,0
115.427444,0.000000,0.000000,0.000000,0.000000,0.000000,0.000000,0.031250,0.041992,0.064697,0.004883,-0.000732,0.003174,0.000000,0,-4500,-4500,0
115.437210,0.000000,0.000000,0.000000,0.000000,0.000000,0.000000,0.031250,0.041992,0.064697,-0.003174,0.000488,0.002197,0.000000,0,-4500,-4500,0
115.446976,0.000000,0.000000,0.000000,0.000000,0.000000,0.000000,0.031250,0.041992,0.064697,-0.000977,0.000977,0.002686,0.000000,0,-4500,-4500,0
115.456741,0.000000,0.000000,0.000000,0.000000,0.000000,0.000000,0.031250,0.041992,0.064697,-0.000488,0.002686,0.000000,0.000000,0,-4500,-4500,0
115.466507,0.000000,0.000000,0.000000,0.000000,0.000000,0.000000,0.031250,0.041992,0.064697,-0.004883,0.001465,0.001709,0.000000,0,-4500,-4500,0
115.476273,0.000000,0.000000,0.000000,0.000000,0.000000,0.000000,0.031250,0.041992,0.064697,-0.000488,0.000977,-0.000977,0.000000,0,-4500,-4500,0
115.491898,0.000000,0.000000,0.000000,0.000000,0.000000,0.000000,0.031250,0.041992,0.064697,-0.004883,0.000000,-0.000488,0.000000,0,-4500,-4500,0
115.501671,0.000000,0.000000,0.000000,0.000000,0.000000,0.000000,0.031482,0.042160,0.064905,0.000000,-0.001221,0.000488,0.000000,0,-4500,-4500,0
115.511444,0.000000,0.000000,0.000000,0.000000,0.000000,0.000000,0.031250,0.041992,0.064697,-0.004150,-0.000732,-0.000977,0.000000,0,-4500,-4500,0
115.521202,0.000000,0.000000,0.000000,0.000000,0.000000,0.000000,0.031250,0.041992,0.064697,-0.004150,0.003174,0.001221,0.000000,0,-4500,-4500,0
115.530968,0.000000,0.000000,0.000000,0.000000,0.000000,0.000000,0.031250,0.041992,0.064697,-0.002197,-0.001709,-0.000977,0.000000,0,-4500,-4500,0
115.540733,0.000000,0.000000,0.000000,0.000000,0.000000,0.000000,0.031250,0.041992,0.064697,-0.003174,0.001465,0.000000,0.000000,0,-4500,-4500,0
115.550491,0.000000,0.000000,0.000000,0.000000,0.000000,0.000000,0.031250,0.041992,0.064697,0.000977,0.000000,0.002197,0.000000,0,-4500,-4500,0
115.560257,0.000000,0.000000,0.000000,0.000000,0.000000,0.000000,0.031250,0.041992,0.064697,0.002197,-0.000732,-0.002441,0.000000,0,-4500,-4500,0
115.570023,0.000000,0.000000,0.000000,0.000000,0.000000,0.000000,0.031250,0.041992,0.064697,0.000977,-0.003174,0.000000,0.000000,0,-4500,-4500,0
115.579788,0.000000,0.000000,0.000000,0.000000,0.000000,0.000000,0.031250,0.041992,0.064697,0.000000,0.000977,0.001221,0.000000,0,-4500,-4500,0
115.589554,0.000000,0.000000,0.000000,0.000000,0.000000,0.000000,0.031250,0.041992,0.064697,0.000977,-0.001221,0.000488,0.000000,0,-4500,-4500,0
115.599319,0.000000,0.000000,0.000000,0.000000,0.000000,0.000000,0.031250,0.041992,0.064697,0.000977,-0.002686,0.002686,0.000000,0,-4500,-4500,0
115.609085,0.000000,0.000000,0.000000,0.000000,0.000000,0.000000,0.031250,0.041992,0.064697,0.003662,0.000000,0.001709,0.000000,0,-4500,-4500,0
115.618851,0.000000,0.000000,0.000000,0.000000,0.000000,0.000000,0.031250,0.041992,0.064697,0.004883,-0.002686,0.000000,0.000000,0,-4500,-4500,0
115.628616,0.000000,0.000000,0.000000,0.000000,0.000000,0.000000,0.031250,0.041992,0.064697,0.004883,0.000488,0.000000,0.000000,0,-4500,-4500,0
115.638382,0.000000,0.000000,0.000000,0.000000,0.000000,0.000000,0.031250,0.041992,0.064697,0.000000,0.000977,0.003662,0.000000,0,-4500,-4500,0
115.648148,0.000000,0.000000,0.000000,0.000000,0.000000,0.000000,0.031250,0.041992,0.064697,0.004150,0.000977,0.001709,0.000000,0,-4500,-4500,0
115.657913,0.000000,0.000000,0.000000,0.000000,0.000000,0.000000,0.031250,0.041992,0.064697,0.007568,0.000000,0.000000,0.000000,0,-4500,-4500,0
115.667679,0.000000,0.000000,0.000000,0.000000,0.000000,0.000000,0.031250,0.041992,0.064697,0.003662,-0.001709,0.002197,0.000000,0,-4500,-4500,0
115.677444,0.000000,0.000000,0.000000,0.000000,0.000000,0.000000,0.031250,0.041992,0.064697,0.007568,-0.001709,0.002197,0.000000,0,-4500,-4500,0
115.687210,0.000000,0.000000,0.000000,0.000000,0.000000,0.000000,0.031250,0.041992,0.064697,0.003174,0.000000,0.002686,0.000000,0,-4500,-4500,0
115.696976,0.000000,0.000000,0.000000,0.000000,0.000000,0.000000,0.031250,0.041992,0.064941,0.004150,0.003174,0.000000,0.000000,0,-4500,-4500,0
115.706741,0.000000,0.000000,0.000000,0.000000,0.000000,0.000000,0.031250,0.041992,0.064941,0.003174,0.000977,0.001709,0.000000,0,-4500,-4500,0
115.716507,0.000000,0.000000,0.000000,0.000000,0.000000,0.000000,0.031250,0.041992,0.064941,0.003174,0.001465,0.002197,0.000000,0,-4500,-4500,0
115.726273,0.000000,0.000000,0.000000,0.000000,0.000000,0.000000,0.031250,0.041992,0.064941,0.004883,0.001953,-0.000488,0.000000,0,-4500,-4500,0
115.741898,0.000000,0.000000,0.000000,0.000000,0.000000,0.000000,0.031250,0.041992,0.064941,-0.003662,0.001465,-0.000488,0.000000,0,-4500,-4500,0
115.751671,0.000000,0.000000,0.000000,0.000000,0.000000,0.000000,0.031250,0.041992,0.064941,-0.004150,-0.000732,0.000000,0.000000,0,-4500,-4500,0
115.761436,0.000000,0.000000,0.000000,0.000000,0.000000,0.000000,0.031250,0.041992,0.064941,-0.003662,0.000488,0.001221,0.000000,0,-4500,-4500,0
115.771202,0.000000,0.000000,0.000000,0.000000,0.000000,0.000000,0.031250,0.041992,0.064941,-0.005371,-0.002197,-0.001465,0.000000,0,-4500,-4500,0
115.780968,0.000000,0.000000,0.000000,0.000000,0.000000,0.000000,0.031250,0.041992,0.064941,-0.004883,0.001953,-0.000488,0.000000,0,-4500,-4500,0
115.790726,0.000000,0.000000,0.000000,0.000000,0.000000,0.000000,0.031250,0.041992,0.064941,-0.003174,0.000000,-0.001953,0.000000,0,-4500,-4500,0
115.800491,0.000000,0.000000,0.000000,0.000000,0.000000,0.000000,0.031250,0.041992,0.064941,-0.004883,0.001953,0.000488,0.000000,0,-4500,-4500,0
115.810257,0.000000,0.000000,0.000000,0.000000,0.000000,0.000000,0.031250,0.041992,0.064941,-0.001465,-0.001221,-0.000977,0.000000,0,-4500,-4500,0
115.820023,0.000000,0.000000,0.000000,0.000000,0.000000,0.000000,0.031250,0.041992,0.064941,-0.003174,0.000977,0.001221,0.000000,0,-4500,-4500,0
115.829788,0.000000,0.000000,0.000000,0.000000,0.000000,0.000000,0.031250,0.041992,0.064941,-0.008057,0.000977,0.000000,0.000000,0,-4500,-4500,0
115.839554,0.000000,0.000000,0.000000,0.000000,0.000000,0.000000,0.031250,0.041992,0.064941,-0.003174,-0.001709,0.000000,0.000000,0,-4500,-4500,0
115.849327,0.000000,0.000000,0.000000,0.000000,0.000000,0.000000,0.031250,0.041992,0.064941,-0.004883,0.002686,-0.001953,0.000000,0,-4500,-4500,0
115.859085,0.000000,0.000000,0.000000,0.000000,0.000000,0.000000,0.031250,0.041992,0.064941,-0.002686,0.000000,0.002197,0.000000,0,-4500,-4500,0
115.868851,0.000000,0.000000,0.000000,0.000000,0.000000,0.000000,0.031250,0.041992,0.064941,-0.007324,0.000000,0.000000,0.000000,0,-4500,-4500,0
115.878616,0.000000,0.000000,0.000000,0.000000,0.000000,0.000000,0.031250,0.041992,0.064941,-0.003174,0.000488,-0.001465,0.000000,0,-4500,-4500,0
115.888382,0.000000,0.000000,0.000000,0.000000,0.000000,0.000000,0.031250,0.041992,0.064941,-0.000488,-0.003174,0.001709,0.000000,0,-4500,-4500,0
115.898148,0.000000,0.000000,0.000000,0.000000,0.000000,0.000000,0.031250,0.041992,0.064941,-0.001465,0.000977,-0.000488,0.000000,0,-4500,-4500,0
115.907913,0.000000,0.000000,0.000000,0.000000,0.000000,0.000000,0.031250,0.041992,0.064941,0.002686,0.000977,-0.000977,0.000000,0,-4500,-4500,0
115.917679,0.000000,0.000000,0.000000,0.000000,0.000000,0.000000,0.031250,0.041992,0.064941,0.000488,-0.002197,0.001221,0.000000,0,-4500,-4500,0
115.927444,0.000000,0.000000,0.000000,0.000000,0.000000,0.000000,0.031250,0.041992,0.064941,0.002197,-0.001221,-0.002441,0.000000,0,-4500,-4500,0
115.937210,0.000000,0.000000,0.000000,0.000000,0.000000,0.000000,0.031250,0.041992,0.064941,0.000000,-0.002686,0.000488,0.000000,0,-4500,-4500,0
115.946976,0.000000,0.000000,0.000000,0.000000,0.000000,0.000000,0.031250,0.041992,0.064941,0.004150,-0.000732,0.004395,0.000000,0,-4500,-4500,0
115.956741,0.000000,0.000000,0.000000,0.000000,0.000000,0.000000,0.031250,0.041992,0.064941,0.000488,-0.001221,0.000488,0.000000,0,-4500,-4500,0
115.966507,0.000000,0.000000,0.000000,0.000000,0.000000,0.000000,0.031250,0.041992,0.064941,0.000488,-0.001221,0.000000,0.000000,0,-4500,-4500,0
115.981163,0.000000,0.000000,0.000000,0.000000,0.000000,0.000000,0.031494,0.041992,0.064941,0.002686,0.001953,-0.000977,0.000000,0,-4500,-4500,0
115.989952,0.000000,0.000000,0.000000,0.000000,0.000000,0.000000,0.031494,0.041992,0.064941,0.000977,-0.000732,0.003662,0.000000,0,-4500,-4500,0
116.001663,0.000000,0.000000,0.000000,0.000000,0.000000,0.000000,0.031494,0.041992,0.064941,0.002197,0.000977,0.002197,0.000000,0,-4500,-4500,0
116.011436,0.000000,0.000000,0.000000,0.000000,0.000000,0.000000,0.031494,0.041992,0.064941,0.000977,0.001953,0.001709,0.000000,0,-4500,-4500,0
116.021217,0.000000,0.000000,0.000000,0.000000,0.000000,0.000000,0.031494,0.041992,0.064941,0.003662,-0.002197,0.001221,0.000000,0,-4500,-4500,0
116.030960,0.000000,0.000000,0.000000,0.000000,0.000000,0.000000,0.031494,0.041992,0.064941,0.000000,0.000977,-0.001465,0.000000,0,-4500,-4500,0
116.040726,0.000000,0.000000,0.000000,0.000000,0.000000,0.000000,0.031494,0.041992,0.064941,-0.000488,0.000488,0.003662,0.000000,0,-4500,-4500,0
116.050499,0.000000,0.000000,0.000000,0.000000,0.000000,0.000000,0.031494,0.041992,0.064941,-0.004883,0.002686,0.000000,0.000000,0,-4500,-4500,0
116.060257,0.000000,0.000000,0.000000,0.000000,0.000000,0.000000,0.031494,0.041992,0.064941,-0.001465,-0.000732,0.002197,0.000000,0,-4500,-4500,0
116.070023,0.000000,0.000000,0.000000,0.000000,0.000000,0.000000,0.031494,0.041992,0.064941,-0.000977,0.000488,0.002197,0.000000,0,-4500,-4500,0
116.079788,0.000000,0.000000,0.000000,0.000000,0.000000,0.000000,0.031494,0.041992,0.064941,0.000488,0.004639,0.000488,0.000000,0,-4500,-4500,0
116.089554,0.000000,0.000000,0.000000,0.000000,0.000000,0.000000,0.031494,0.041992,0.064941,-0.002197,0.000977,0.001221,0.000000,0,-4500,-4500,0
116.099319,0.000000,0.000000,0.000000,0.000000,0.000000,0.000000,0.031494,0.041992,0.064941,-0.000488,0.003174,0.000488,0.000000,0,-4500,-4500,0
116.109085,0.000000,0.000000,0.000000,0.000000,0.000000,0.000000,0.031494,0.041992,0.064941,-0.003174,0.000977,-0.001953,0.000000,0,-4500,-4500,0
116.118851,0.000000,0.000000,0.000000,0.000000,0.000000,0.000000,0.031494,0.041992,0.064941,-0.006348,0.000000,-0.000488,0.000000,0,-4500,-4500,0
116.128616,0.000000,0.000000,0.000000,0.000000,0.000000,0.000000,0.031494,0.041992,0.064941,-0.004883,0.002686,0.002197,0.000000,0,-4500,-4500,0
116.138382,0.000000,0.000000,0.000000,0.000000,0.000000,0.000000,0.031494,0.041992,0.064941,-0.003662,0.000488,-0.002930,0.000000,0,-4500,-4500,0
116.148148,0.000000,0.000000,0.000000,0.000000,0.000000,0.000000,0.031494,0.041992,0.064941,-0.005371,-0.000732,-0.000488,0.000000,0,-4500,-4500,0
116.157913,0.000000,0.000000,0.000000,0.000000,0.000000,0.000000,0.031494,0.041992,0.065186,-0.003174,0.001953,0.000000,0.000000,0,-4500,-4500,0
116.167679,0.000000,0.000000,0.000000,0.000000,0.000000,0.000000,0.031494,0.041992,0.065186,-0.005371,0.000977,-0.001465,0.000000,0,-4500,-4500,0
116.180397,0.000000,0.000000,0.000000,0.000000,0.000000,0.000000,0.031494,0.041992,0.065186,0.003662,-0.001221,0.001221,0.000000,0,-4500,-4500,0
116.190147,0.000000,0.000000,0.000000,0.000000,0.000000,0.000000,0.031494,0.041992,0.065186,0.002197,0.000000,-0.002441,0.000000,0,-4500,-4500,0
116.198936,0.000000,0.000000,0.000000,0.000000,0.000000,0.000000,0.031675,0.042148,0.065337,0.003662,-0.002197,0.002686,0.000000,0,-4500,-4500,0
116.208702,0.000000,0.000000,0.000000,0.000000,0.000000,0.000000,0.031494,0.041992,0.065186,0.007568,-0.000732,0.003174,0.000000,0,-4500,-4500,0
116.218460,0.000000,0.000000,0.000000,0.000000,0.000000,0.000000,0.031494,0.041992,0.065186,0.002686,0.000977,0.001221,0.000000,0,-4500,-4500,0
116.228226,0.000000,0.000000,0.000000,0.000000,0.000000,0.000000,0.031494,0.041992,0.065186,0.004150,0.000977,0.004883,0.000000,0,-4500,-4500,0
116.237991,0.000000,0.000000,0.000000,0.000000,0.000000,0.000000,0.031494,0.041992,0.065186,0.002686,0.001953,0.001709,0.000000,0,-4500,-4500,0
116.247757,0.000000,0.000000,0.000000,0.000000,0.000000,0.000000,0.031494,0.041992,0.065186,0.006348,-0.001709,0.002686,0.000000,0,-4500,-4500,0
116.257530,0.000000,0.000000,0.000000,0.000000,0.000000,0.000000,0.031494,0.041992,0.065186,0.001709,0.000488,0.001221,0.000000,0,-4500,-4500,0
116.267288,0.000000,0.000000,0.000000,0.000000,0.000000,0.000000,0.031494,0.041992,0.065186,0.000977,0.000977,0.001221,0.000000,0,-4500,-4500,0
116.277054,0.000000,0.000000,0.000000,0.000000,0.000000,0.000000,0.031494,0.041992,0.065186,-0.000488,0.000488,0.000488,0.000000,0,-4500,-4500,0
116.286819,0.000000,0.000000,0.000000,0.000000,0.000000,0.000000,0.031494,0.041992,0.065186,-0.000977,-0.001221,0.000488,0.000000,0,-4500,-4500,0
116.296585,0.000000,0.000000,0.000000,0.000000,0.000000,0.000000,0.031494,0.041992,0.065186,0.000977,0.000000,0.002686,0.000000,0,-4500,-4500,0
116.306351,0.000000,0.000000,0.000000,0.000000,0.000000,0.000000,0.031494,0.041992,0.065186,-0.002686,0.001953,0.000000,0.000000,0,-4500,-4500,0
116.316116,0.000000,0.000000,0.000000,0.000000,0.000000,0.000000,0.031494,0.041992,0.065186,-0.004150,0.000977,0.001709,0.000000,0,-4500,-4500,0
116.325882,0.000000,0.000000,0.000000,0.000000,0.000000,0.000000,0.031494,0.041992,0.065186,-0.002686,0.001465,0.002686,0.000000,0,-4500,-4500,0
116.335663,0.000000,0.000000,0.000000,0.000000,0.000000,0.000000,0.031494,0.041992,0.065186,-0.004150,0.001953,0.004395,0.000000,0,-4500,-4500,0
116.345413,0.000000,0.000000,0.000000,0.000000,0.000000,0.000000,0.031494,0.041992,0.065186,-0.003662,0.000977,0.000488,0.000000,0,-4500,-4500,0
116.355186,0.000000,0.000000,0.000000,0.000000,0.000000,0.000000,0.031494,0.041992,0.065186,-0.003174,0.001465,0.000488,0.000000,0,-4500,-4500,0
116.364944,0.000000,0.000000,0.000000,0.000000,0.000000,0.000000,0.031494,0.041992,0.065186,-0.003662,0.000488,0.001221,0.000000,0,-4500,-4500,0
116.380569,0.000000,0.000000,0.000000,0.000000,0.000000,0.000000,0.031683,0.042142,0.065704,0.000977,-0.001221,0.003174,0.000000,0,-4500,-4500,0
116.391312,0.000000,0.000000,0.000000,0.000000,0.000000,0.000000,0.031494,0.041992,0.065430,-0.002197,-0.002197,-0.001465,0.000000,0,-4500,-4500,0
116.400101,0.000000,0.000000,0.000000,0.000000,0.000000,0.000000,0.031494,0.041992,0.065430,-0.000488,-0.001221,0.000000,0.000000,0,-4500,-4500,0
116.409866,0.000000,0.000000,0.000000,0.000000,0.000000,0.000000,0.031494,0.041992,0.065430,0.000000,0.000000,0.002197,0.000000,0,-4500,-4500,0
116.419632,0.000000,0.000000,0.000000,0.000000,0.000000,0.000000,0.031494,0.041992,0.065430,-0.002197,-0.001709,0.000000,0.000000,0,-4500,-4500,0
116.429405,0.000000,0.000000,0.000000,0.000000,0.000000,0.000000,0.031494,0.041992,0.065430,0.002197,-0.002686,0.000488,0.000000,0,-4500,-4500,0
116.439163,0.000000,0.000000,0.000000,0.000000,0.000000,0.000000,0.031494,0.041992,0.065430,-0.000488,-0.002686,0.000000,0.000000,0,-4500,-4500,0
116.448929,0.000000,0.000000,0.000000,0.000000,0.000000,0.000000,0.031494,0.041992,0.065430,0.003662,-0.002686,0.002197,0.000000,0,-4500,-4500,0
116.458702,0.000000,0.000000,0.000000,0.000000,0.000000,0.000000,0.031494,0.041992,0.065430,0.001709,-0.000732,0.001709,0.000000,0,-4500,-4500,0
116.468460,0.000000,0.000000,0.000000,0.000000,0.000000,0.000000,0.031494,0.041992,0.065430,0.003174,-0.001221,0.001709,0.000000,0,-4500,-4500,0
116.478226,0.000000,0.000000,0.000000,0.000000,0.000000,0.000000,0.031684,0.042141,0.065765,0.006348,-0.003906,0.002197,0.000000,0,-4500,-4500,0
116.487991,0.000000,0.000000,0.000000,0.000000,0.000000,0.000000,0.031494,0.041992,0.065674,0.003662,-0.000732,0.001221,0.000000,0,-4500,-4500,0
116.497757,0.000000,0.000000,0.000000,0.000000,0.000000,0.000000,0.031494,0.041992,0.065674,0.002197,0.000488,0.002686,0.000000,0,-4500,-4500,0
116.507523,0.000000,0.000000,0.000000,0.000000,0.000000,0.000000,0.031494,0.041992,0.065674,0.003662,-0.001709,0.000000,0.000000,0,-4500,-4500,0
116.517288,0.000000,0.000000,0.000000,0.000000,0.000000,0.000000,0.031494,0.041992,0.065674,0.004150,0.003662,0.001221,0.000000,0,-4500,-4500,0
116.527061,0.000000,0.000000,0.000000,0.000000,0.000000,0.000000,0.031494,0.041992,0.065674,0.004883,0.001953,0.002686,0.000000,0,-4500,-4500,0
116.536819,0.000000,0.000000,0.000000,0.000000,0.000000,0.000000,0.031494,0.041992,0.065674,0.003662,0.001953,0.001709,0.000000,0,-4500,-4500,0
116.546585,0.000000,0.000000,0.000000,0.000000,0.000000,0.000000,0.031494,0.041992,0.065674,0.002197,-0.000732,0.001221,0.000000,0,-4500,-4500,0
116.556351,0.000000,0.000000,0.000000,0.000000,0.000000,0.000000,0.031494,0.041992,0.065674,0.003662,-0.000732,-0.000488,0.000000,0,-4500,-4500,0
116.566116,0.000000,0.000000,0.000000,0.000000,0.000000,0.000000,0.031494,0.041992,0.065674,0.004883,0.000977,0.003662,0.000000,0,-4500,-4500,0
116.581741,0.000000,0.000000,0.000000,0.000000,0.000000,0.000000,0.031494,0.041992,0.065674,-0.003174,0.000000,-0.000977,0.000000,0,-4500,-4500,0
116.591507,0.000000,0.000000,0.000000,0.000000,0.000000,0.000000,0.031494,0.041992,0.065674,-0.003662,0.000488,0.000000,0.000000,0,-4500,-4500,0
116.601273,0.000000,0.000000,0.000000,0.000000,0.000000,0.000000,0.031494,0.041992,0.065674,-0.001465,0.003174,0.001221,0.000000,0,-4500,-4500,0
116.611046,0.000000,0.000000,0.000000,0.000000,0.000000,0.000000,0.031494,0.041992,0.065674,-0.004883,-0.000732,0.000000,0.000000,0,-4500,-4500,0
116.620811,0.000000,0.000000,0.000000,0.000000,0.000000,0.000000,0.031494,0.041992,0.065674,-0.003662,-0.001221,-0.000488,0.000000,0,-4500,-4500,0
116.630569,0.000000,0.000000,0.000000,0.000000,0.000000,0.000000,0.031494,0.041992,0.065674,-0.002686,0.001465,0.000000,0.000000,0,-4500,-4500,0
116.640335,0.000000,0.000000,0.000000,0.000000,0.000000,0.000000,0.031494,0.041992,0.065674,-0.004883,0.000000,-0.000977,0.000000,0,-4500,-4500,0
116.650101,0.000000,0.000000,0.000000,0.000000,0.000000,0.000000,0.031494,0.041992,0.065674,-0.006836,-0.001709,0.001221,0.000000,0,-4500,-4500,0
116.659866,0.000000,0.000000,0.000000,0.000000,0.000000,0.000000,0.031494,0.041992,0.065674,-0.005371,0.001465,-0.000977,0.000000,0,-4500,-4500,0
116.669632,0.000000,0.000000,0.000000,0.000000,0.000000,0.000000,0.031494,0.041992,0.065674,-0.005371,0.000977,0.001221,0.000000,0,-4500,-4500,0
116.679398,0.000000,0.000000,0.000000,0.000000,0.000000,0.000000,0.031494,0.041992,0.065674,-0.002197,0.003174,0.001221,0.000000,0,-4500,-4500,0
116.689163,0.000000,0.000000,0.000000,0.000000,0.000000,0.000000,0.031494,0.041992,0.065674,-0.005859,0.000488,0.001221,0.000000,0,-4500,-4500,0
116.698936,0.000000,0.000000,0.000000,0.000000,0.000000,0.000000,0.031494,0.041992,0.065674,-0.005371,-0.002686,0.000488,0.000000,0,-4500,-4500,0
116.708694,0.000000,0.000000,0.000000,0.000000,0.000000,0.000000,0.031689,0.042138,0.066009,0.001709,-0.003906,0.003662,0.000000,0,-4500,-4500,0
116.718460,0.000000,0.000000,0.000000,0.000000,0.000000,0.000000,0.031494,0.041992,0.065918,-0.003174,0.000000,0.001221,0.000000,0,-4500,-4500,0
116.728226,0.000000,0.000000,0.000000,0.000000,0.000000,0.000000,0.031494,0.041992,0.065918,-0.003662,-0.001709,0.000488,0.000000,0,-4500,-4500,0
116.737991,0.000000,0.000000,0.000000,0.000000,0.000000,0.000000,0.031494,0.041992,0.065918,-0.001465,0.000488,0.000000,0.000000,0,-4500,-4500,0
116.747757,0.000000,0.000000,0.000000,0.000000,0.000000,0.000000,0.031494,0.041992,0.065918,0.000977,0.000488,-0.000488,0.000000,0,-4500,-4500,0
116.757523,0.000000,0.000000,0.000000,0.000000,0.000000,0.000000,0.031494,0.041992,0.065918,0.000977,-0.001221,0.000488,0.000000,0,-4500,-4500,0
116.767288,0.000000,0.000000,0.000000,0.000000,0.000000,0.000000,0.031494,0.041992,0.065918,0.000488,-0.001221,0.001709,0.000000,0,-4500,-4500,0
116.777054,0.000000,0.000000,0.000000,0.000000,0.000000,0.000000,0.031494,0.041992,0.065918,0.002197,0.002686,0.001221,0.000000,0,-4500,-4500,0
116.786819,0.000000,0.000000,0.000000,0.000000,0.000000,0.000000,0.031494,0.041992,0.065918,0.002197,0.000000,0.001709,0.000000,0,-4500,-4500,0
116.796585,0.000000,0.000000,0.000000,0.000000,0.000000,0.000000,0.031494,0.041992,0.065918,0.002686,0.000488,0.001709,0.000000,0,-4500,-4500,0
116.806351,0.000000,0.000000,0.000000,0.000000,0.000000,0.000000,0.031494,0.041992,0.065918,0.003662,-0.000732,0.002686,0.000000,0,-4500,-4500,0
116.816116,0.000000,0.000000,0.000000,0.000000,0.000000,0.000000,0.031494,0.041992,0.065918,0.003174,-0.002686,0.000000,0.000000,0,-4500,-4500,0
116.829788,0.000000,0.000000,0.000000,0.000000,0.000000,0.000000,0.031494,0.041992,0.065918,0.002686,-0.003174,0.002197,0.000000,0,-4500,-4500,0
116.839554,0.000000,0.000000,0.000000,0.000000,0.000000,0.000000,0.031494,0.041992,0.065918,0.000000,0.000000,0.000488,0.000000,0,-4500,-4500,0
116.849319,0.000000,0.000000,0.000000,0.000000,0.000000,0.000000,0.031494,0.041992,0.065918,0.003662,-0.001709,0.001221,0.000000,0,-4500,-4500,0
116.859085,0.000000,0.000000,0.000000,0.000000,0.000000,0.000000,0.031494,0.041992,0.065918,0.000488,0.001465,0.001709,0.000000,0,-4500,-4500,0
116.868851,0.000000,0.000000,0.000000,0.000000,0.000000,0.000000,0.031494,0.041992,0.065918,0.002197,0.000488,0.000488,0.000000,0,-4500,-4500,0
116.878616,0.000000,0.000000,0.000000,0.000000,0.000000,0.000000,0.031494,0.041992,0.065918,0.003662,0.000000,0.002686,0.000000,0,-4500,-4500,0
116.888382,0.000000,0.000000,0.000000,0.000000,0.000000,0.000000,0.031494,0.041992,0.066162,0.004150,-0.002197,0.000000,0.000000,0,-4500,-4500,0
116.898148,0.000000,0.000000,0.000000,0.000000,0.000000,0.000000,0.031494,0.041992,0.066162,0.000977,-0.001709,0.000000,0.000000,0,-4500,-4500,0
116.907921,0.000000,0.000000,0.000000,0.000000,0.000000,0.000000,0.031494,0.041992,0.066162,0.005859,0.000977,-0.000977,0.000000,0,-4500,-4500,0
116.917679,0.000000,0.000000,0.000000,0.000000,0.000000,0.000000,0.031494,0.041992,0.066162,0.000977,-0.002197,0.000000,0.000000,0,-4500,-4500,0
116.927444,0.000000,0.000000,0.000000,0.000000,0.000000,0.000000,0.031494,0.041992,0.066162,0.005371,-0.004883,0.000488,0.000000,0,-4500,-4500,0
116.937218,0.000000,0.000000,0.000000,0.000000,0.000000,0.000000,0.031494,0.041992,0.066162,0.005859,0.000000,0.000488,0.000000,0,-4500,-4500,0
116.946976,0.000000,0.000000,0.000000,0.000000,0.000000,0.000000,0.031494,0.041992,0.066162,0.004883,-0.002197,0.001709,0.000000,0,-4500,-4500,0
116.956741,0.000000,0.000000,0.000000,0.000000,0.000000,0.000000,0.031494,0.041992,0.066162,0.004883,0.000977,0.000000,0.000000,0,-4500,-4500,0
116.966507,0.000000,0.000000,0.000000,0.000000,0.000000,0.000000,0.031494,0.041992,0.066162,0.005859,0.000000,0.002197,0.000000,0,-4500,-4500,0
116.976273,0.000000,0.000000,0.000000,0.000000,0.000000,0.000000,0.031494,0.041992,0.066162,0.002686,0.003662,-0.000488,0.000000,0,-4500,-4500,0
116.986038,0.000000,0.000000,0.000000,0.000000,0.000000,0.000000,0.031494,0.041992,0.066162,0.003662,0.001465,0.001709,0.000000,0,-4500,-4500,0
116.995804,0.000000,0.000000,0.000000,0.000000,0.000000,0.000000,0.031494,0.041992,0.066162,0.002197,0.001953,0.001221,0.000000,0,-4500,-4500,0
117.005569,0.000000,0.000000,0.000000,0.000000,0.000000,0.000000,0.031494,0.041992,0.066162,0.001709,0.003662,0.002197,0.000000,0,-4500,-4500,0
117.015343,0.000000,0.000000,0.000000,0.000000,0.000000,0.000000,0.031494,0.041992,0.066162,0.000000,0.003174,0.001221,0.000000,0,-4500,-4500,0
117.025101,0.000000,0.000000,0.000000,0.000000,0.000000,0.000000,0.031494,0.041992,0.066162,0.002197,-0.001709,0.001221,0.000000,0,-4500,-4500,0
117.034874,0.000000,0.000000,0.000000,0.000000,0.000000,0.000000,0.031494,0.041992,0.066162,-0.002686,0.000977,0.000000,0.000000,0,-4500,-4500,0
117.044632,0.000000,0.000000,0.000000,0.000000,0.000000,0.000000,0.031494,0.041992,0.066162,0.000977,0.001953,0.001709,0.000000,0,-4500,-4500,0
117.054398,0.000000,0.000000,0.000000,0.000000,0.000000,0.000000,0.031494,0.041992,0.066162,-0.002197,-0.001709,-0.000488,0.000000,0,-4500,-4500,0
117.070023,0.000000,0.000000,0.000000,0.000000,0.000000,0.000000,0.031494,0.041992,0.066162,-0.000977,0.000488,0.001709,0.000000,0,-4500,-4500,0
117.079788,0.000000,0.000000,0.000000,0.000000,0.000000,0.000000,0.031494,0.041992,0.066162,-0.002197,0.002686,0.001709,0.000000,0,-4500,-4500,0
117.089554,0.000000,0.000000,0.000000,0.000000,0.000000,0.000000,0.031494,0.041992,0.066162,-0.001465,0.001465,-0.000488,0.000000,0,-4500,-4500,0
117.099319,0.000000,0.000000,0.000000,0.000000,0.000000,0.000000,0.031494,0.041992,0.066162,-0.004883,0.000488,0.001709,0.000000,0,-4500,-4500,0
117.109085,0.000000,0.000000,0.000000,0.000000,0.000000,0.000000,0.031494,0.041992,0.066162,-0.003662,0.000977,-0.003418,0.000000,0,-4500,-4500,0
117.118851,0.000000,0.000000,0.000000,0.000000,0.000000,0.000000,0.031494,0.041992,0.066162,-0.000977,-0.001221,0.001221,0.000000,0,-4500,-4500,0
117.128616,0.000000,0.000000,0.000000,0.000000,0.000000,0.000000,0.031494,0.041992,0.066162,-0.001465,-0.002197,-0.000977,0.000000,0,-4500,-4500,0
117.138382,0.000000,0.000000,0.000000,0.000000,0.000000,0.000000,0.031494,0.041992,0.066162,-0.000977,0.000977,0.000000,0.000000,0,-4500,-4500,0
117.148148,0.000000,0.000000,0.000000,0.000000,0.000000,0.000000,0.031494,0.041992,0.066406,-0.001465,0.000000,0.000000,0.000000,0,-4500,-4500,0
117.157913,0.000000,0.000000,0.000000,0.000000,0.000000,0.000000,0.031494,0.041992,0.066406,0.000488,-0.002197,0.002686,0.000000,0,-4500,-4500,0
117.167679,0.000000,0.000000,0.000000,0.000000,0.000000,0.000000,0.031494,0.041992,0.066406,0.002686,-0.000732,-0.000488,0.000000,0,-4500,-4500,0
117.177452,0.000000,0.000000,0.000000,0.000000,0.000000,0.000000,0.031494,0.041992,0.066406,0.003662,0.002686,0.001709,0.000000,0,-4500,-4500,0
117.187210,0.000000,0.000000,0.000000,0.000000,0.000000,0.000000,0.031494,0.041992,0.066406,0.000000,0.000000,-0.000488,0.000000,0,-4500,-4500,0
117.196976,0.000000,0.000000,0.000000,0.000000,0.000000,0.000000,0.031494,0.041992,0.066406,0.003662,0.001465,-0.000977,0.000000,0,-4500,-4500,0
117.206741,0.000000,0.000000,0.000000,0.000000,0.000000,0.000000,0.031494,0.041992,0.066406,0.002197,-0.002197,0.002197,0.000000,0,-4500,-4500,0
117.216507,0.000000,0.000000,0.000000,0.000000,0.000000,0.000000,0.031494,0.041992,0.066406,0.002686,-0.001221,0.000000,0.000000,0,-4500,-4500,0
117.226273,0.000000,0.000000,0.000000,0.000000,0.000000,0.000000,0.031494,0.041992,0.066406,0.003662,0.000488,0.001221,0.000000,0,-4500,-4500,0
117.236038,0.000000,0.000000,0.000000,0.000000,0.000000,0.000000,0.031494,0.041992,0.066406,0.005859,0.002686,0.001221,0.000000,0,-4500,-4500,0
117.245804,0.000000,0.000000,0.000000,0.000000,0.000000,0.000000,0.031494,0.041992,0.066406,0.002197,-0.001221,0.000000,0.000000,0,-4500,-4500,0
117.255569,0.000000,0.000000,0.000000,0.000000,0.000000,0.000000,0.031494,0.041992,0.066406,0.003662,-0.002197,0.003174,0.000000,0,-4500,-4500,0
117.265335,0.000000,0.000000,0.000000,0.000000,0.000000,0.000000,0.031494,0.041992,0.066406,0.004150,0.000488,0.000000,0.000000,0,-4500,-4500,0
117.275101,0.000000,0.000000,0.000000,0.000000,0.000000,0.000000,0.031494,0.041992,0.066406,0.004883,0.000488,0.002686,0.000000,0,-4500,-4500,0
117.284866,0.000000,0.000000,0.000000,0.000000,0.000000,0.000000,0.031494,0.041992,0.066406,0.004150,0.000488,-0.001465,0.000000,0,-4500,-4500,0
117.294632,0.000000,0.000000,0.000000,0.000000,0.000000,0.000000,0.031494,0.041992,0.066406,0.005859,0.001465,0.003174,0.000000,0,-4500,-4500,0
117.304398,0.000000,0.000000,0.000000,0.000000,0.000000,0.000000,0.031494,0.041992,0.066406,0.002197,0.000488,0.003662,0.000000,0,-4500,-4500,0
117.321976,0.000000,0.000000,0.000000,0.000000,0.000000,0.000000,0.031494,0.041992,0.066650,-0.002197,-0.000732,-0.001465,0.000000,0,-4500,-4500,0
117.331741,0.000000,0.000000,0.000000,0.000000,0.000000,0.000000,0.031494,0.041992,0.066650,0.002686,-0.000732,0.000488,0.000000,0,-4500,-4500,0
117.341507,0.000000,0.000000,0.000000,0.000000,0.000000,0.000000,0.031494,0.041992,0.066650,0.000977,0.001953,-0.002930,0.000000,0,-4500,-4500,0
117.351273,0.000000,0.000000,0.000000,0.000000,0.000000,0.000000,0.031494,0.041992,0.066650,0.000488,-0.003906,-0.001465,0.000000,0,-4500,-4500,0
117.361038,0.000000,0.000000,0.000000,0.000000,0.000000,0.000000,0.031494,0.041992,0.066650,0.004883,0.000488,-0.000488,0.000000,0,-4500,-4500,0
117.370804,0.000000,0.000000,0.000000,0.000000,0.000000,0.000000,0.031494,0.041992,0.066650,0.004150,0.000488,0.000000,0.000000,0,-4500,-4500,0
117.380569,0.000000,0.000000,0.000000,0.000000,0.000000,0.000000,0.031494,0.041992,0.066650,0.000488,0.000488,0.000488,0.000000,0,-4500,-4500,0
117.390381,0.000000,0.000000,0.000000,0.000000,0.000000,0.000000,0.031494,0.041992,0.066650,0.004883,-0.002197,-0.000488,0.000000,0,-4500,-4500,0
117.400108,0.000000,0.000000,0.000000,0.000000,0.000000,0.000000,0.031494,0.041992,0.066650,0.005371,-0.001221,-0.000977,0.000000,0,-4500,-4500,0
117.409866,0.000000,0.000000,0.000000,0.000000,0.000000,0.000000,0.031494,0.041992,0.066650,0.003662,-0.002197,0.001709,0.000000,0,-4500,-4500,0
117.419647,0.000000,0.000000,0.000000,0.000000,0.000000,0.000000,0.031494,0.041992,0.066650,0.004883,-0.001709,-0.001465,0.000000,0,-4500,-4500,0
117.429398,0.000000,0.000000,0.000000,0.000000,0.000000,0.000000,0.031494,0.041992,0.066650,0.004883,-0.003174,-0.001465,0.000000,0,-4500,-4500,0
117.439163,0.000000,0.000000,0.000000,0.000000,0.000000,0.000000,0.031494,0.041992,0.066650,0.004883,0.000000,0.000000,0.000000,0,-4500,-4500,0
117.448936,0.000000,0.000000,0.000000,0.000000,0.000000,0.000000,0.031494,0.041992,0.066650,0.002686,0.000488,0.001709,0.000000,0,-4500,-4500,0
117.458694,0.000000,0.000000,0.000000,0.000000,0.000000,0.000000,0.031494,0.041992,0.066650,0.002197,-0.001221,0.001709,0.000000,0,-4500,-4500,0
117.468460,0.000000,0.000000,0.000000,0.000000,0.000000,0.000000,0.031494,0.041992,0.066650,0.005859,-0.001709,0.002197,0.000000,0,-4500,-4500,0
117.478226,0.000000,0.000000,0.000000,0.000000,0.000000,0.000000,0.031494,0.041992,0.066650,0.002197,0.001465,0.000000,0.000000,0,-4500,-4500,0
117.487991,0.000000,0.000000,0.000000,0.000000,0.000000,0.000000,0.031494,0.041992,0.066650,0.002197,-0.001221,0.001221,0.000000,0,-4500,-4500,0
117.497757,0.000000,0.000000,0.000000,0.000000,0.000000,0.000000,0.031494,0.041992,0.066650,0.003174,-0.000732,0.001221,0.000000,0,-4500,-4500,0
117.507523,0.000000,0.000000,0.000000,0.000000,0.000000,0.000000,0.031494,0.041992,0.066650,0.000977,0.000977,0.002686,0.000000,0,-4500,-4500,0
117.517288,0.000000,0.000000,0.000000,0.000000,0.000000,0.000000,0.031494,0.041992,0.066650,-0.000977,0.000977,-0.000977,0.000000,0,-4500,-4500,0
117.527054,0.000000,0.000000,0.000000,0.000000,0.000000,0.000000,0.031494,0.041992,0.066650,0.001709,0.000488,0.001221,0.000000,0,-4500,-4500,0
117.536819,0.000000,0.000000,0.000000,0.000000,0.000000,0.000000,0.031494,0.041992,0.066650,-0.002686,0.000000,-0.000488,0.000000,0,-4500,-4500,0
117.546585,0.000000,0.000000,0.000000,0.000000,0.000000,0.000000,0.031494,0.041992,0.066650,0.000488,0.001465,-0.000977,0.000000,0,-4500,-4500,0
117.556351,0.000000,0.000000,0.000000,0.000000,0.000000,0.000000,0.031494,0.041992,0.066650,-0.003174,0.001465,-0.000977,0.000000,0,-4500,-4500,0
117.573929,0.000000,0.000000,0.000000,0.000000,0.000000,0.000000,0.031250,0.041748,0.066650,0.008057,0.000977,0.002686,0.000000,0,-4500,-4500,0
117.583694,0.000000,0.000000,0.000000,0.000000,0.000000,0.000000,0.031250,0.041748,0.066650,0.007568,-0.002686,-0.003906,0.000000,0,-4500,-4500,0
117.593460,0.000000,0.000000,0.000000,0.000000,0.000000,0.000000,0.031494,0.041748,0.066650,0.019775,0.003174,0.000488,0.000000,0,-4500,-4500,0
117.603226,0.000000,0.000000,0.000000,0.000000,0.000000,0.000000,0.031250,0.041748,0.066650,-0.008545,0.001953,0.001709,0.000000,0,-4500,-4500,0
117.612991,0.000000,0.000000,0.000000,0.000000,0.000000,0.000000,0.031494,0.041748,0.066650,0.033203,0.000977,0.002686,0.000000,0,-4500,-4500,0
117.622757,0.000000,0.000000,0.000000,0.000000,0.000000,0.000000,0.031494,0.041748,0.066650,-0.013184,-0.001221,-0.000488,0.000000,0,-4500,-4500,0
117.632523,0.000000,0.000000,0.000000,0.000000,0.000000,0.000000,0.031250,0.041748,0.066650,0.023926,0.000000,0.001709,0.000000,0,-4500,-4500,0
117.642288,0.000000,0.000000,0.000000,0.000000,0.000000,0.000000,0.031494,0.041748,0.066650,-0.009033,-0.003906,-0.001465,0.000000,0,-4500,-4500,0
117.652061,0.000000,0.000000,0.000000,0.000000,0.000000,0.000000,0.031250,0.041748,0.066650,0.013428,0.004150,0.001221,0.000000,0,-4500,-4500,0
117.661827,0.000000,0.000000,0.000000,0.000000,0.000000,0.000000,0.031250,0.041748,0.066650,-0.008057,-0.001221,0.005371,0.000000,0,-4500,-4500,0
117.671593,0.000000,0.000000,0.000000,0.000000,0.000000,0.000000,0.031250,0.041748,0.066650,0.006348,0.002686,-0.002441,0.000000,0,-4500,-4500,0
117.681351,0.000000,0.000000,0.000000,0.000000,0.000000,0.000000,0.031494,0.041748,0.066650,-0.002686,0.003174,0.000000,0.000000,0,-4500,-4500,0
117.691124,0.000000,0.000000,0.000000,0.000000,0.000000,0.000000,0.031494,0.041748,0.066650,0.000000,0.001953,0.007080,0.000000,0,-4500,-4500,0
117.700882,0.000000,0.000000,0.000000,0.000000,0.000000,0.000000,0.031494,0.041748,0.066650,0.008057,0.000977,0.000488,0.000000,0,-4500,-4500,0
117.710655,0.000000,0.000000,0.000000,0.000000,0.000000,0.000000,0.031494,0.041748,0.066650,-0.011719,0.004639,-0.000977,0.000000,0,-4500,-4500,0
117.720413,0.000000,0.000000,0.000000,0.000000,0.000000,0.000000,0.031494,0.041748,0.066650,0.006348,0.000977,0.002197,0.000000,0,-4500,-4500,0
117.730186,0.000000,0.000000,0.000000,0.000000,0.000000,0.000000,0.031494,0.041748,0.066895,-0.009033,-0.000732,0.000000,0.000000,0,-4500,-4500,0
117.739944,0.000000,0.000000,0.000000,0.000000,0.000000,0.000000,0.031494,0.041748,0.066895,0.002686,0.001953,0.000000,0.000000,0,-4500,-4500,0
117.749710,0.000000,0.000000,0.000000,0.000000,0.000000,0.000000,0.031494,0.041748,0.066895,-0.009033,0.000977,0.000000,0.000000,0,-4500,-4500,0
117.765350,0.000000,0.000000,0.000000,0.000000,0.000000,0.000000,0.031494,0.041748,0.066895,0.007568,-0.000732,0.001221,0.000000,0,-4500,-4500,0
117.775101,0.000000,0.000000,0.000000,0.000000,0.000000,0.000000,0.031250,0.041992,0.066895,0.000000,-0.001221,0.001709,0.000000,0,-4500,-4500,0
117.784866,0.000000,0.000000,0.000000,0.000000,0.000000,0.000000,0.031250,0.041992,0.066895,-0.002197,0.001465,0.000000,0.000000,0,-4500,-4500,0
117.794632,0.000000,0.000000,0.000000,0.000000,0.000000,0.000000,0.031250,0.041992,0.066895,0.002686,-0.001221,-0.002441,0.000000,0,-4500,-4500,0
117.804398,0.000000,0.000000,0.000000,0.000000,0.000000,0.000000,0.031250,0.041992,0.066895,-0.000488,0.000977,0.002686,0.000000,0,-4500,-4500,0
117.814163,0.000000,0.000000,0.000000,0.000000,0.000000,0.000000,0.031250,0.041992,0.066895,0.004883,-0.000732,0.001221,0.000000,0,-4500,-4500,0
117.823929,0.000000,0.000000,0.000000,0.000000,0.000000,0.000000,0.031250,0.041992,0.066895,-0.000488,0.000977,-0.003418,0.000000,0,-4500,-4500,0
117.833694,0.000000,0.000000,0.000000,0.000000,0.000000,0.000000,0.031250,0.041992,0.066895,0.005371,-0.000732,0.001221,0.000000,0,-4500,-4500,0
117.843460,0.000000,0.000000,0.000000,0.000000,0.000000,0.000000,0.031250,0.041992,0.066895,0.001709,-0.001709,0.000000,0.000000,0,-4500,-4500,0
117.853226,0.000000,0.000000,0.000000,0.000000,0.000000,0.000000,0.031250,0.041992,0.066895,0.003662,-0.001709,0.000488,0.000000,0,-4500,-4500,0
117.862991,0.000000,0.000000,0.000000,0.000000,0.000000,0.000000,0.031250,0.041992,0.066895,0.004883,-0.002686,0.002686,0.000000,0,-4500,-4500,0
117.872757,0.000000,0.000000,0.000000,0.000000,0.000000,0.000000,0.031250,0.041992,0.066895,0.000488,0.000488,-0.000977,0.000000,0,-4500,-4500,0
117.882530,0.000000,0.000000,0.000000,0.000000,0.000000,0.000000,0.031250,0.041992,0.066895,0.004883,-0.002197,0.001221,0.000000,0,-4500,-4500,0
117.892288,0.000000,0.000000,0.000000,0.000000,0.000000,0.000000,0.031250,0.041992,0.066895,0.005371,-0.000732,0.004395,0.000000,0,-4500,-4500,0
117.902061,0.000000,0.000000,0.000000,0.000000,0.000000,0.000000,0.031250,0.041992,0.066895,0.006348,0.000000,0.001709,0.000000,0,-4500,-4500,0
117.911819,0.000000,0.000000,0.000000,0.000000,0.000000,0.000000,0.031250,0.041992,0.066895,0.003174,0.000000,0.000488,0.000000,0,-4500,-4500,0
117.921593,0.000000,0.000000,0.000000,0.000000,0.000000,0.000000,0.031250,0.041992,0.066895,0.003662,-0.001221,0.001221,0.000000,0,-4500,-4500,0
117.931351,0.000000,0.000000,0.000000,0.000000,0.000000,0.000000,0.031250,0.041992,0.066895,0.002197,-0.003174,-0.000977,0.000000,0,-4500,-4500,0
117.941116,0.000000,0.000000,0.000000,0.000000,0.000000,0.000000,0.031250,0.041992,0.066895,0.003174,-0.001221,0.001709,0.000000,0,-4500,-4500,0
117.950882,0.000000,0.000000,0.000000,0.000000,0.000000,0.000000,0.031250,0.041992,0.066895,0.001709,0.000000,0.001709,0.000000,0,-4500,-4500,0
117.960655,0.000000,0.000000,0.000000,0.000000,0.000000,0.000000,0.031250,0.041992,0.066895,0.003174,0.000000,0.001709,0.000000,0,-4500,-4500,0
117.970413,0.000000,0.000000,0.000000,0.000000,0.000000,0.000000,0.031250,0.041992,0.066895,0.004150,0.001953,0.001221,0.000000,0,-4500,-4500,0
117.980179,0.000000,0.000000,0.000000,0.000000,0.000000,0.000000,0.031250,0.041992,0.066895,-0.000488,-0.001221,0.001709,0.000000,0,-4500,-4500,0
117.989944,0.000000,0.000000,0.000000,0.000000,0.000000,0.000000,0.031250,0.041992,0.066895,0.000488,0.002686,0.001709,0.000000,0,-4500,-4500,0
117.999710,0.000000,0.000000,0.000000,0.000000,0.000000,0.000000,0.031250,0.041992,0.066895,-0.001465,0.002686,0.000488,0.000000,0,-4500,-4500,0
118.013382,0.000000,0.000000,0.000000,0.000000,0.000000,0.000000,0.031406,0.041943,0.067343,0.001709,-0.000732,0.003662,0.000000,0,-4500,-4500,0
118.025101,0.000000,0.000000,0.000000,0.000000,0.000000,0.000000,0.031250,0.041748,0.067139,-0.003662,0.000977,-0.001465,0.000000,0,-4500,-4500,0
118.034866,0.000000,0.000000,0.000000,0.000000,0.000000,0.000000,0.031250,0.041748,0.067139,-0.003662,-0.001221,0.000488,0.000000,0,-4500,-4500,0
118.044632,0.000000,0.000000,0.000000,0.000000,0.000000,0.000000,0.031250,0.041748,0.067139,-0.004150,0.000488,-0.002441,0.000000,0,-4500,-4500,0
118.054398,0.000000,0.000000,0.000000,0.000000,0.000000,0.000000,0.031250,0.041748,0.067139,-0.004883,-0.000732,0.001221,0.000000,0,-4500,-4500,0
118.064163,0.000000,0.000000,0.000000,0.000000,0.000000,0.000000,0.031250,0.041748,0.067139,-0.004150,-0.002686,-0.000488,0.000000,0,-4500,-4500,0
118.073929,0.000000,0.000000,0.000000,0.000000,0.000000,0.000000,0.031250,0.041748,0.067139,-0.002686,-0.003906,-0.000977,0.000000,0,-4500,-4500,0
118.083694,0.000000,0.000000,0.000000,0.000000,0.000000,0.000000,0.031407,0.041942,0.067404,-0.001465,0.000488,-0.000488,0.000000,0,-4500,-4500,0
118.093460,0.000000,0.000000,0.000000,0.000000,0.000000,0.000000,0.031250,0.041748,0.067139,-0.002197,-0.001709,-0.001465,0.000000,0,-4500,-4500,0
118.103226,0.000000,0.000000,0.000000,0.000000,0.000000,0.000000,0.031250,0.041748,0.067139,0.000488,0.000000,-0.000977,0.000000,0,-4500,-4500,0
118.112991,0.000000,0.000000,0.000000,0.000000,0.000000,0.000000,0.031250,0.041748,0.067139,-0.005859,-0.001221,-0.001465,0.000000,0,-4500,-4500,0
118.122757,0.000000,0.000000,0.000000,0.000000,0.000000,0.000000,0.031250,0.041748,0.067139,0.003662,-0.002197,0.000488,0.000000,0,-4500,-4500,0
118.132530,0.000000,0.000000,0.000000,0.000000,0.000000,0.000000,0.031250,0.041748,0.067139,-0.000488,-0.001709,0.002197,0.000000,0,-4500,-4500,0
118.142288,0.000000,0.000000,0.000000,0.000000,0.000000,0.000000,0.031250,0.041748,0.067139,0.001709,0.000977,-0.000488,0.000000,0,-4500,-4500,0
118.152054,0.000000,0.000000,0.000000,0.000000,0.000000,0.000000,0.031250,0.041748,0.067139,0.004883,-0.001221,0.001221,0.000000,0,-4500,-4500,0
118.161827,0.000000,0.000000,0.000000,0.000000,0.000000,0.000000,0.031250,0.041748,0.067139,0.000000,0.001953,0.003174,0.000000,0,-4500,-4500,0
118.171585,0.000000,0.000000,0.000000,0.000000,0.000000,0.000000,0.031250,0.041748,0.067139,0.005859,0.000977,0.004395,0.000000,0,-4500,-4500,0
118.181351,0.000000,0.000000,0.000000,0.000000,0.000000,0.000000,0.031250,0.041748,0.067139,0.003662,0.000488,0.002686,0.000000,0,-4500,-4500,0
118.191116,0.000000,0.000000,0.000000,0.000000,0.000000,0.000000,0.031250,0.041748,0.067139,0.003174,0.000488,-0.001953,0.000000,0,-4500,-4500,0
118.200882,0.000000,0.000000,0.000000,0.000000,0.000000,0.000000,0.031250,0.041748,0.067139,-0.002197,0.000977,0.001221,0.000000,0,-4500,-4500,0
118.210648,0.000000,0.000000,0.000000,0.000000,0.000000,0.000000,0.031471,0.041938,0.067528,0.008545,0.000488,0.000488,0.000000,0,-4500,-4500,0
118.220413,0.000000,0.000000,0.000000,0.000000,0.000000,0.000000,0.031250,0.041748,0.067383,0.004150,0.000488,0.000488,0.000000,0,-4500,-4500,0
118.230179,0.000000,0.000000,0.000000,0.000000,0.000000,0.000000,0.031250,0.041748,0.067383,0.004883,0.000977,0.001221,0.000000,0,-4500,-4500,0
118.239944,0.000000,0.000000,0.000000,0.000000,0.000000,0.000000,0.031250,0.041748,0.067383,0.004883,0.000488,0.002197,0.000000,0,-4500,-4500,0
118.249710,0.000000,0.000000,0.000000,0.000000,0.000000,0.000000,0.031250,0.041748,0.067383,0.002686,0.001953,-0.000488,0.000000,0,-4500,-4500,0
118.265335,0.000000,0.000000,0.000000,0.000000,0.000000,0.000000,0.031250,0.041748,0.067383,-0.002197,0.001953,0.002686,0.000000,0,-4500,-4500,0
118.277054,0.000000,0.000000,0.000000,0.000000,0.000000,0.000000,0.031250,0.041748,0.067383,0.002686,0.000977,-0.000488,0.000000,0,-4500,-4500,0
118.286827,0.000000,0.000000,0.000000,0.000000,0.000000,0.000000,0.031250,0.041748,0.067383,0.001709,-0.004883,0.000488,0.000000,0,-4500,-4500,0
118.296585,0.000000,0.000000,0.000000,0.000000,0.000000,0.000000,0.031250,0.041748,0.067383,0.003174,0.000977,-0.001465,0.000000,0,-4500,-4500,0
118.306351,0.000000,0.000000,0.000000,0.000000,0.000000,0.000000,0.031250,0.041748,0.067383,0.000000,-0.003174,0.002197,0.000000,0,-4500,-4500,0
118.316116,0.000000,0.000000,0.000000,0.000000,0.000000,0.000000,0.031250,0.041748,0.067383,0.003662,-0.002686,0.001709,0.000000,0,-4500,-4500,0
118.325890,0.000000,0.000000,0.000000,0.000000,0.000000,0.000000,0.031250,0.041748,0.067383,0.004150,-0.000732,0.001709,0.000000,0,-4500,-4500,0
118.335648,0.000000,0.000000,0.000000,0.000000,0.000000,0.000000,0.031250,0.041748,0.067383,0.006348,0.003174,0.000488,0.000000,0,-4500,-4500,0
118.345413,0.000000,0.000000,0.000000,0.000000,0.000000,0.000000,0.031250,0.041748,0.067383,0.008057,-0.002197,0.001709,0.000000,0,-4500,-4500,0
118.355186,0.000000,0.000000,0.000000,0.000000,0.000000,0.000000,0.031250,0.041748,0.067383,0.003174,0.000977,0.000000,0.000000,0,-4500,-4500,0
118.364952,0.000000,0.000000,0.000000,0.000000,0.000000,0.000000,0.031250,0.041748,0.067383,0.003662,0.003174,0.002686,0.000000,0,-4500,-4500,0
118.374710,0.000000,0.000000,0.000000,0.000000,0.000000,0.000000,0.031250,0.041748,0.067383,0.004883,0.003174,0.002197,0.000000,0,-4500,-4500,0
118.384476,0.000000,0.000000,0.000000,0.000000,0.000000,0.000000,0.031250,0.041748,0.067383,0.002686,0.000488,0.001709,0.000000,0,-4500,-4500,0
118.394241,0.000000,0.000000,0.000000,0.000000,0.000000,0.000000,0.031250,0.041748,0.067383,0.005371,0.000000,-0.001465,0.000000,0,-4500,-4500,0
118.404007,0.000000,0.000000,0.000000,0.000000,0.000000,0.000000,0.031250,0.041748,0.067383,0.005371,-0.000732,0.003174,0.000000,0,-4500,-4500,0
118.413773,0.000000,0.000000,0.000000,0.000000,0.000000,0.000000,0.031250,0.041748,0.067383,0.004150,0.000000,-0.000488,0.000000,0,-4500,-4500,0
118.423538,0.000000,0.000000,0.000000,0.000000,0.000000,0.000000,0.031250,0.041748,0.067383,0.000000,0.000488,-0.000488,0.000000,0,-4500,-4500,0
118.433304,0.000000,0.000000,0.000000,0.000000,0.000000,0.000000,0.031250,0.041748,0.067383,0.000977,0.000000,0.003174,0.000000,0,-4500,-4500,0
118.443069,0.000000,0.000000,0.000000,0.000000,0.000000,0.000000,0.031250,0.041748,0.067383,-0.000977,0.003174,0.001221,0.000000,0,-4500,-4500,0
118.459686,0.000000,0.000000,0.000000,0.000000,0.000000,0.000000,0.031250,0.041748,0.067383,-0.000488,0.000000,0.000488,0.000000,0,-4500,-4500,0
118.468460,0.000000,0.000000,0.000000,0.000000,0.000000,0.000000,0.031250,0.041992,0.067627,0.000000,-0.000732,0.001709,0.000000,0,-4500,-4500,0
118.478226,0.000000,0.000000,0.000000,0.000000,0.000000,0.000000,0.031250,0.041992,0.067627,-0.006348,0.003174,0.000488,0.000000,0,-4500,-4500,0
118.487999,0.000000,0.000000,0.000000,0.000000,0.000000,0.000000,0.031250,0.041992,0.067627,-0.001465,0.000488,0.000000,0.000000,0,-4500,-4500,0
118.497757,0.000000,0.000000,0.000000,0.000000,0.000000,0.000000,0.031250,0.041992,0.067627,-0.003174,0.000977,0.001221,0.000000,0,-4500,-4500,0
118.507523,0.000000,0.000000,0.000000,0.000000,0.000000,0.000000,0.031250,0.041992,0.067627,-0.003662,-0.001221,0.001221,0.000000,0,-4500,-4500,0
118.517288,0.000000,0.000000,0.000000,0.000000,0.000000,0.000000,0.031250,0.041992,0.067627,-0.003174,0.000000,-0.002930,0.000000,0,-4500,-4500,0
118.527054,0.000000,0.000000,0.000000,0.000000,0.000000,0.000000,0.031250,0.041992,0.067627,-0.002686,-0.002686,-0.001953,0.000000,0,-4500,-4500,0
118.536819,0.000000,0.000000,0.000000,0.000000,0.000000,0.000000,0.031250,0.041992,0.067627,-0.004883,-0.001221,-0.000488,0.000000,0,-4500,-4500,0
118.546585,0.000000,0.000000,0.000000,0.000000,0.000000,0.000000,0.031250,0.041992,0.067627,0.000000,-0.002197,0.001221,0.000000,0,-4500,-4500,0
118.556351,0.000000,0.000000,0.000000,0.000000,0.000000,0.000000,0.031250,0.041992,0.067871,-0.000977,-0.001709,-0.001953,0.000000,0,-4500,-4500,0
118.566116,0.000000,0.000000,0.000000,0.000000,0.000000,0.000000,0.031250,0.041992,0.067871,0.000977,-0.000732,0.000000,0.000000,0,-4500,-4500,0
118.575890,0.000000,0.000000,0.000000,0.000000,0.000000,0.000000,0.031250,0.041992,0.067871,0.000977,-0.001221,-0.001465,0.000000,0,-4500,-4500,0
118.585648,0.000000,0.000000,0.000000,0.000000,0.000000,0.000000,0.031250,0.041992,0.067871,0.000977,-0.002686,0.000488,0.000000,0,-4500,-4500,0
118.595413,0.000000,0.000000,0.000000,0.000000,0.000000,0.000000,0.031250,0.041992,0.067871,0.000000,-0.003906,0.001221,0.000000,0,-4500,-4500,0
118.605194,0.000000,0.000000,0.000000,0.000000,0.000000,0.000000,0.031250,0.041992,0.067871,0.000977,-0.001221,0.004395,0.000000,0,-4500,-4500,0
118.614944,0.000000,0.000000,0.000000,0.000000,0.000000,0.000000,0.031250,0.041992,0.067871,-0.000977,-0.001709,0.000488,0.000000,0,-4500,-4500,0
118.624710,0.000000,0.000000,0.000000,0.000000,0.000000,0.000000,0.031250,0.041992,0.067871,0.004883,-0.002686,0.000488,0.000000,0,-4500,-4500,0
118.634476,0.000000,0.000000,0.000000,0.000000,0.000000,0.000000,0.031250,0.041992,0.067871,0.005371,0.001465,-0.000488,0.000000,0,-4500,-4500,0
118.644241,0.000000,0.000000,0.000000,0.000000,0.000000,0.000000,0.031250,0.041992,0.067871,0.004883,0.001465,0.002197,0.000000,0,-4500,-4500,0
118.654007,0.000000,0.000000,0.000000,0.000000,0.000000,0.000000,0.031250,0.041992,0.067871,0.003174,-0.001709,0.001709,0.000000,0,-4500,-4500,0
118.663773,0.000000,0.000000,0.000000,0.000000,0.000000,0.000000,0.031250,0.041992,0.067871,0.006348,-0.002686,0.000488,0.000000,0,-4500,-4500,0
118.673538,0.000000,0.000000,0.000000,0.000000,0.000000,0.000000,0.031250,0.041992,0.067871,0.003174,0.001953,-0.000977,0.000000,0,-4500,-4500,0
118.683304,0.000000,0.000000,0.000000,0.000000,0.000000,0.000000,0.031250,0.041992,0.067871,0.003662,0.000000,-0.000977,0.000000,0,-4500,-4500,0
118.693069,0.000000,0.000000,0.000000,0.000000,0.000000,0.000000,0.031250,0.041992,0.067871,0.002686,-0.001709,0.002686,0.000000,0,-4500,-4500,0
118.710648,0.000000,0.000000,0.000000,0.000000,0.000000,0.000000,0.031549,0.041986,0.068265,0.000977,-0.002686,0.001221,0.000000,0,-4500,-4500,0
118.720413,0.000000,0.000000,0.000000,0.000000,0.000000,0.000000,0.031250,0.041992,0.068115,-0.003662,-0.000732,-0.000488,0.000000,0,-4500,-4500,0
118.730179,0.000000,0.000000,0.000000,0.000000,0.000000,0.000000,0.031250,0.041992,0.068115,0.000488,-0.001709,0.001221,0.000000,0,-4500,-4500,0
118.739944,0.000000,0.000000,0.000000,0.000000,0.000000,0.000000,0.031250,0.041992,0.068115,0.000000,0.000000,0.000000,0.000000,0,-4500,-4500,0
118.749710,0.000000,0.000000,0.000000,0.000000,0.000000,0.000000,0.031250,0.041992,0.068115,0.000977,-0.001221,-0.000488,0.000000,0,-4500,-4500,0
118.759476,0.000000,0.000000,0.000000,0.000000,0.000000,0.000000,0.031250,0.041992,0.068115,0.003662,-0.001221,0.001709,0.000000,0,-4500,-4500,0
118.769241,0.000000,0.000000,0.000000,0.000000,0.000000,0.000000,0.031250,0.041992,0.068115,0.003662,0.000977,-0.000488,0.000000,0,-4500,-4500,0
118.779007,0.000000,0.000000,0.000000,0.000000,0.000000,0.000000,0.031250,0.041992,0.068115,0.000000,-0.001709,0.002686,0.000000,0,-4500,-4500,0
118.788773,0.000000,0.000000,0.000000,0.000000,0.000000,0.000000,0.031250,0.041992,0.068115,0.005371,0.001465,0.000488,0.000000,0,-4500,-4500,0
118.798546,0.000000,0.000000,0.000000,0.000000,0.000000,0.000000,0.031250,0.041992,0.068115,0.003662,-0.000732,0.001221,0.000000,0,-4500,-4500,0
118.808304,0.000000,0.000000,0.000000,0.000000,0.000000,0.000000,0.031250,0.041992,0.068115,0.002197,0.000000,0.002197,0.000000,0,-4500,-4500,0
118.818085,0.000000,0.000000,0.000000,0.000000,0.000000,0.000000,0.031250,0.041992,0.068115,0.005859,-0.002686,0.000488,0.000000,0,-4500,-4500,0
118.827835,0.000000,0.000000,0.000000,0.000000,0.000000,0.000000,0.031250,0.041992,0.068115,0.005371,0.000977,0.000488,0.000000,0,-4500,-4500,0
118.837601,0.000000,0.000000,0.000000,0.000000,0.000000,0.000000,0.031250,0.041992,0.068115,0.003174,0.001953,0.001709,0.000000,0,-4500,-4500,0
118.847382,0.000000,0.000000,0.000000,0.000000,0.000000,0.000000,0.031250,0.041992,0.068115,0.003662,0.000488,0.001709,0.000000,0,-4500,-4500,0
118.857132,0.000000,0.000000,0.000000,0.000000,0.000000,0.000000,0.031250,0.041992,0.068115,0.000977,-0.001221,0.002197,0.000000,0,-4500,-4500,0
118.866898,0.000000,0.000000,0.000000,0.000000,0.000000,0.000000,0.031250,0.041992,0.068115,0.004150,0.002686,0.000000,0.000000,0,-4500,-4500,0
118.876663,0.000000,0.000000,0.000000,0.000000,0.000000,0.000000,0.031250,0.041992,0.068115,0.003174,-0.000732,0.000488,0.000000,0,-4500,-4500,0
118.886429,0.000000,0.000000,0.000000,0.000000,0.000000,0.000000,0.031250,0.041992,0.068115,0.006348,-0.000732,0.002686,0.000000,0,-4500,-4500,0
118.896194,0.000000,0.000000,0.000000,0.000000,0.000000,0.000000,0.031250,0.041992,0.068115,-0.000488,0.002686,0.001221,0.000000,0,-4500,-4500,0
118.905960,0.000000,0.000000,0.000000,0.000000,0.000000,0.000000,0.031250,0.041992,0.068115,0.003662,0.000488,0.000488,0.000000,0,-4500,-4500,0
118.915726,0.000000,0.000000,0.000000,0.000000,0.000000,0.000000,0.031250,0.041992,0.068115,0.001709,0.001465,0.001221,0.000000,0,-4500,-4500,0
118.925491,0.000000,0.000000,0.000000,0.000000,0.000000,0.000000,0.031250,0.041992,0.068115,0.000000,0.004150,0.001709,0.000000,0,-4500,-4500,0
118.935257,0.000000,0.000000,0.000000,0.000000,0.000000,0.000000,0.031250,0.041992,0.068115,-0.000488,-0.001221,0.001221,0.000000,0,-4500,-4500,0
